customerid,name,address,citystatezip,birthdate,phone,timezone,lat,long
1001,"Daniel Davenport","434A Lewis Ave","Brooklyn, NY 11233","1984-10-04","716-830-1680","America/New_York",40.68096337041813,-73.93565605512796
1002,"Cheryl Stewart","26 E 53rd St","Manhattan, NY 10022","1974-01-28","315-592-2559","America/New_York",40.75878,-73.96524
1003,"Brandi Oconnell","3936 26th Ave SE","San Juan, PR 00915","1984-08-16","710-748-4569","America/Puerto_Rico",18.39850,-66.06100
1004,"Corey Faulkner","86-20 131st St","Richmond Hill, NY 11418","1951-04-01","212-380-6434","America/New_York",40.70236,-73.82165
1005,"Bryan Bridges","637 Park Ln","Brockton, MA 02301","1972-11-28","857-351-3324","America/New_York",42.08210,-71.02420
1006,"Monica Adams","61-76 Catalpa Ave","Ridgewood, NY 11385","1999-03-29","917-427-6011","America/New_York",40.70320,-73.90194
1007,"Monique Ramirez","99-29 Rockaway Blvd","Ozone Park, NY 11417","1961-03-22","516-515-5134","America/New_York",40.67960,-73.84370
1008,"Andrew Jones","171-24 Bagley Ave","Flushing, NY 11358","1974-08-03","838-959-0952","America/New_York",40.75193,-73.79358
1009,"Michael Johnson","1298 E 68th St","Brooklyn, NY 11234","1945-05-11","838-857-5252","America/New_York",40.62034,-73.91630
1010,"Derrick Beasley","3308 E 12th Dr","Philadelphia, PA 19118","1946-12-12","570-947-7936","America/New_York",40.00770,-75.13390
1011,"Dominique Harrell","971 New Lots Ave","Brooklyn, NY 11208","1969-04-28","716-666-5314","America/New_York",40.66671,-73.87783
1012,"Vanessa Wilson","1117 W Lehua Pl","Honolulu, HI 96858","1951-11-08","808-556-4663","Pacific/Honolulu",21.32940,-157.84600
1013,"Billy Johnson","1525½ Fulton St","Brooklyn, NY 11216","1948-07-15","516-503-8567","America/New_York",40.68008,-73.95010
1014,"Dawn Gillespie","4713 SW Park Way","North Las Vegas, NV 89030","1942-11-02","702-522-1695","America/Los_Angeles",36.28830,-115.08880
1015,"Nicole Fitzgerald","574 Hart St","Brooklyn, NY 11221","1976-04-08","716-340-8196","America/New_York",40.69688,-73.92778
1016,"Richard Diaz Jr.","3513 Mickle Ave","Bronx, NY 10469","1975-06-19","631-231-2478","America/New_York",40.87014,-73.84112
1017,"Kerry Garcia","22 Jumel Terrace","Manhattan, NY 10032","1986-07-28","516-237-6970","America/New_York",40.83455,-73.93881
1018,"Jason Leblanc","30 Narrows Rd S","Staten Island, NY 10305","1965-01-11","631-902-1998","America/New_York",40.60237,-74.06972
1019,"Joseph Long","23-75 Mott Ave","Far Rockaway, NY 11691","1973-12-13","631-823-1317","America/New_York",40.61066,-73.75634
1020,"Bruce Campbell Jr.","321A 67th St","Brooklyn, NY 11220","1997-08-16","716-865-8088","America/New_York",40.63358,-74.02233
1021,"Christina Mcdonald","2174 Coleman St","Brooklyn, NY 11234","1949-06-30","315-841-6244","America/New_York",40.60815,-73.93507
1022,"William Reynolds","260 E 39th St","Manhattan, NY 10016","1970-01-18","838-883-2089","America/New_York",40.75006,-73.97331
1023,"Tina White","2738 NE 4th Ln","Greeley, CO 80631","1970-11-14","970-974-5090","America/Denver",40.41520,-104.77060
1024,"Sydney Murphy","4023 E 4th Ave","Kingfield, ME 04947","1941-04-02","207-959-2118","America/New_York",44.95820,-70.15920
1025,"Samuel Hall","31-97 Steinway St","Astoria, NY 11103","1945-07-06","914-890-6997","America/New_York",40.76372,-73.91902
1026,"Cory Turner","244-37 144th Ave","Rosedale, NY 11422","1956-11-03","585-965-7394","America/New_York",40.65918,-73.73390
1027,"Tyler Garcia","296 N 6th St","Brooklyn, NY 11211","1953-08-09","646-553-3808","America/New_York",40.71696,-73.95818
1028,"Theresa Ruiz","344 W 119th St","Manhattan, NY 10026","1979-05-31","332-558-3486","America/New_York",40.80659,-73.95500
1029,"Wayne Harris","98 W 68th St","Manhattan, NY 10023","1973-05-17","315-763-5525","America/New_York",40.77461,-73.98285
1030,"Michael Swanson","2735A Broadway","Manhattan, NY 10025","1959-07-24","585-565-5042","America/New_York",40.80380,-73.97193
1031,"Tina Jasmin Fuentes","85A Moffat St","Brooklyn, NY 11207","1957-07-30","838-732-5899","America/New_York",40.69044,-73.90728
1032,"Lisa Neal","94-26 40th Dr","Elmhurst, NY 11373","1948-11-30","607-299-6368","America/New_York",40.74751,-73.87128
1033,"Laura Bender","57-15 Gipson St","Far Rockaway, NY 11691","1973-08-08","838-773-2323","America/New_York",40.60916,-73.75850
1034,"Marcus Barnes","561A Kingston Ave","Brooklyn, NY 11203","1945-08-25","838-317-3507","America/New_York",40.66256,-73.94216
1035,"Calvin Love","4573 SW Park Rd","Denison, IA 51442","1996-07-24","712-872-2736","America/Chicago",42.01620,-95.35280
1036,"Michelle Keller","4022 SW Park Way","Amboy, WA 98601","1996-05-25","253-212-3578","America/Los_Angeles",45.91220,-122.47960
1037,"Katelyn Boyer","32 Bowling Grn Place","Staten Island, NY 10314","1967-02-17","914-892-3062","America/New_York",40.59561,-74.16675
1038,"John Brooks","135 Lincoln Rd","Brooklyn, NY 11225","1988-07-19","631-346-8025","America/New_York",40.66059,-73.95421
1039,"Morgan Harrison","63-7 Ingram St","Forest Hills, NY 11375","1970-11-23","315-287-3514","America/New_York",40.71394,-73.84581
1040,"Isaiah Anderson Jr.","689 9th Ln","Woodcrest, CA 92506","1997-07-29","805-685-8632","America/Los_Angeles",33.87890,-117.36870
1041,"Jorge Woods Jr.","91-79 102nd St","Richmond Hill, NY 11418","1963-07-02","516-368-2758","America/New_York",40.69418,-73.84676
1042,"Tracy Brown","505 E 118th St","Manhattan, NY 10035","1978-06-10","315-665-9875","America/New_York",40.80014,-73.93971
1043,"Austin Wheeler","811 Cauldwell Ave","Bronx, NY 10456","2000-01-11","838-917-8109","America/New_York",40.82525,-73.90610
1044,"David Gonzalez","76 Pierpont Pl","Staten Island, NY 10314","1968-03-12","838-405-2595","America/New_York",40.57985,-74.15592
1045,"Randy Peters","7021 Louise Terrace","Brooklyn, NY 11209","2001-05-21","347-930-8123","America/New_York",40.63642,-74.03256
1046,"Mark Jensen","2626 W Park Dr","Kansas City, MO 64158","1959-06-28","573-754-1364","America/Chicago",39.12380,-94.55410
1047,"Stacey Silva","245-3 82nd Ave","Bellerose, NY 11426","1970-02-19","212-239-6342","America/New_York",40.73970,-73.72563
1048,"Toni Soto","3600B Jerome Ave","Bronx, NY 10467","1982-08-20","315-263-5968","America/New_York",40.88578,-73.88116
1049,"Summer Garrison","2010A 86th St","Brooklyn, NY 11214","1935-07-21","680-304-9896","America/New_York",40.60758,-73.98651
1050,"Sandy Kelsey Gray","2038 E Park Way","Round Rock, TX 78664","1943-10-29","903-943-6909","America/Chicago",30.52700,-97.66420
1051,"Tracy Brown","77-75 62nd Dr","Middle Village, NY 11379","1993-12-16","845-421-1340","America/New_York",40.72247,-73.88769
1052,"Megan Stevens","80 W 48th St","Manhattan, NY 10036","1965-08-16","516-357-0828","America/New_York",40.76166,-73.98884
1053,"Nathaniel Rodriguez","176 W 88th St","Manhattan, NY 10024","1999-05-10","516-274-7353","America/New_York",40.79101,-73.97291
1054,"Russell Freeman","525 Manhattan Ave","Manhattan, NY 10027","1953-02-04","914-976-9694","America/New_York",40.80771,-73.95368
1055,"Barbara Gonzales","81 Chrystie St","Manhattan, NY 10002","1972-09-02","914-627-2151","America/New_York",40.71778,-73.99313
1056,"Tracy Rodgers","94 SE Park Dr","Murrieta, CA 92563","1956-12-29","916-372-6272","America/Los_Angeles",33.57190,-117.19090
1057,"Bryce Mckinney","78 Bevy Ct","Brooklyn, NY 11229","1961-07-05","838-488-7734","America/New_York",40.59245,-73.92636
1058,"Shannon Munoz","58-15 83rd Pl","Middle Village, NY 11379","1997-04-12","716-721-4597","America/New_York",40.72217,-73.87003
1059,"Joe Williams Jr.","1398 58th St","Brooklyn, NY 11219","1959-08-04","585-808-7679","America/New_York",40.63318,-73.99673
1060,"David Thompson","2091 Ryer Ave","Bronx, NY 10457","1947-08-24","845-881-3839","America/New_York",40.85465,-73.90071
1061,"Erik Washington","2163 SE Maple St","Forty Fort, PA 18704","1952-11-16","445-399-3457","America/New_York",41.28460,-75.86900
1062,"Christian Fowler Jr.","2693 Rear Clarendon Rd","Brooklyn, NY 11226","2000-08-21","516-569-2852","America/New_York",40.64325,-73.94785
1063,"Jamie Herrera","3813 S 75th Ave","Leesburg, FL 34736","1981-09-30","561-917-1555","America/New_York",28.76720,-81.89620
1064,"David Holmes","229A 2nd Ave","Manhattan, NY 10003","1949-08-08","914-668-8595","America/New_York",40.72915,-73.98760
1065,"Devon Gonzalez","890A Southern Blvd","Bronx, NY 10459","1996-10-25","315-488-4691","America/New_York",40.83234,-73.89321
1066,"Kristin Barnes","254 63rd St","Brooklyn, NY 11220","1995-05-24","212-525-3796","America/New_York",40.64122,-74.01805
1067,"Lauren Ferrell","2321 Park Way","Orinda, CA 94563","1982-02-07","909-591-8512","America/Los_Angeles",37.88080,-122.17900
1068,"Christine Flores","253 NE Park Ln","Los Angeles, CA 90731","1970-05-19","805-904-9938","America/Los_Angeles",34.11410,-118.40680
1069,"Tyler Garcia Jr.","2985 Maple Rd","Arcola, IL 61910","1990-05-01","309-346-8313","America/Chicago",39.68330,-88.30130
1070,"Jennifer Miller","3820 S 9th Ln","Chicago, IL 60606","1960-08-04","447-883-3463","America/Chicago",41.83750,-87.68660
1071,"Amanda Turner","18A Cooper Pl","Bronx, NY 10475","1963-01-16","838-656-9082","America/New_York",40.87666,-73.82451
1072,"Rebecca Wang","1003 Montgomery St","Brooklyn, NY 11213","1965-05-23","516-660-2105","America/New_York",40.66410,-73.93840
1073,"Mike Sandoval","781 Aspen Pl","Westminster, CO 80003","1973-10-10","303-264-2833","America/Denver",39.88370,-105.06240
1074,"Robert Williams","4185C Bronxwood Ave","Bronx, NY 10466","1976-03-30","315-778-8480","America/New_York",40.88760,-73.85216
1075,"April Flynn","3770 Bronx Blvd","Bronx, NY 10467","1988-02-08","680-775-2233","America/New_York",40.88182,-73.87055
1076,"Jay Sanchez","4406 Park St NE","Minneapolis, MN 55413","1965-03-16","507-716-8329","America/Chicago",44.96350,-93.26780
1077,"Sarah Bonilla","3476 N Park Way","Aurora, IL 60502","1970-04-14","708-465-6559","America/Chicago",41.76380,-88.29020
1078,"Deborah Nolan","13B Defoe Pl","Bronx, NY 10475","1985-06-15","315-911-0343","America/New_York",40.87595,-73.83084
1079,"Carlos Soto","500 71st St","Brooklyn, NY 11209","1995-08-11","680-880-1707","America/New_York",40.63231,-74.02111
1080,"Shannon Sara Stokes","38-65 Bell Blvd","Bayside, NY 11361","1983-05-09","516-513-5962","America/New_York",40.75983,-73.76940
1081,"Christine Robinson","106-62 Ruscoe St","Jamaica, NY 11433","2000-12-12","516-945-9769","America/New_York",40.70169,-73.78101
1082,"Russell Collins","871B Southern Blvd","Bronx, NY 10459","1988-07-03","315-606-5467","America/New_York",40.83231,-73.89099
1083,"Fred Galloway","78 Thomas S Boyland St","Brooklyn, NY 11233","1997-08-16","516-945-4044","America/New_York",40.67905,-73.91490
1084,"Joseph Brown","29 Kell Ave","Staten Island, NY 10314","1987-02-05","838-258-9213","America/New_York",40.60824,-74.13536
1085,"Katrina Lowe","486 7th St NE","Riverside, CA 92506","1962-07-28","530-470-6321","America/Los_Angeles",33.93810,-117.39490
1086,"Joshua Murphy","4876 2nd Dr","Encinitas, CA 92075","1962-02-23","310-861-4917","America/Los_Angeles",33.04920,-117.26100
1087,"Travis Gomez","1407 NW Maple Dr","Conway, AR 72035","1964-07-22","870-219-2562","America/Chicago",35.07530,-92.46920
1088,"Luis Lopez","40-6 78th St","Elmhurst, NY 11373","1989-06-26","917-711-8890","America/New_York",40.74073,-73.88695
1089,"Kathleen Brenda Cortez","3022 N Park Rd","Chicago, IL 60623","1993-12-22","217-865-5749","America/Chicago",41.83750,-87.68660
1090,"Tammy Callahan","4269 NE Park Pl","Crystal Lake, IL 60012","1977-10-07","708-838-7605","America/Chicago",42.23330,-88.33510
1091,"Katelyn Zavala","307 Henry St","Brooklyn, NY 11201","1960-10-18","516-903-2992","America/New_York",40.69532,-73.99822
1092,"Benjamin Perkins","70 Canton Ct","Brooklyn, NY 11229","1995-07-26","680-433-3349","America/New_York",40.58858,-73.92427
1093,"Jessica Valentine","222C W 125th St","Manhattan, NY 10027","1960-03-21","516-304-8355","America/New_York",40.81192,-73.95242
1094,"Sheryl Steele","92-34 74th Pl","Woodhaven, NY 11421","1964-03-02","516-610-9974","America/New_York",40.68375,-73.86626
1095,"Jonathan Cardenas","212 E 48th St","Manhattan, NY 10017","1960-10-04","917-753-3433","America/New_York",40.75551,-73.97048
1096,"Jacob Chung","144-3 Gravett Rd","Flushing, NY 11367","1962-10-01","716-723-5659","America/New_York",40.73574,-73.82372
1097,"Kendra Jensen","941 Faile St","Bronx, NY 10459","1995-12-31","315-367-5571","America/New_York",40.82334,-73.88883
1098,"Susan Jones","1964 W 64th Pl","Washington, DC 20006","1986-09-29","771-993-0519","America/New_York",38.90470,-77.01630
1099,"Travis Bryant","2748 Rear Harway Ave","Brooklyn, NY 11214","1976-01-03","315-496-1719","America/New_York",40.59069,-73.98964
1100,"Jonathan Wiley","130 Rear Chestnut Ave","Staten Island, NY 10305","1979-06-14","607-449-2464","America/New_York",40.61517,-74.07119
1101,"Joseph Dunn III","205 E 3rd St","Manhattan, NY 10009","1988-01-28","838-499-7779","America/New_York",40.72134,-73.97898
1102,"Michael Miller","386 E 149th St","Bronx, NY 10455","1946-04-19","838-323-6601","America/New_York",40.80575,-73.90227
1103,"Martha Schroeder","887 E 149th St","Bronx, NY 10455","2000-02-24","212-598-9010","America/New_York",40.80806,-73.90114
1104,"Kyle Evans","94 Ave P","Brooklyn, NY 11223","1996-12-21","347-926-5045","America/New_York",40.60843,-73.97690
1105,"Scott Dunn","169B Court St","Brooklyn, NY 11201","2001-04-22","212-661-1401","America/New_York",40.69199,-73.99330
1106,"Robert Ortiz","4133 91st Ln SW","Gainesville, FL 32653","1999-06-22","772-842-6193","America/New_York",29.68040,-82.34590
1107,"Hunter Johnson","67-40 Fresh Pond Rd","Ridgewood, NY 11385","1989-05-18","212-414-5197","America/New_York",40.70505,-73.89883
1108,"Jeremy Keller","4029 3rd Pl SE","Boulder, CO 80301","1996-02-20","719-614-8053","America/Denver",40.02480,-105.25240
1109,"Matthew Fleming","69 W 127th St","Manhattan, NY 10027","1985-06-20","914-339-5614","America/New_York",40.81341,-73.94437
1110,"Johnathan King","85-62 251st St","Bellerose, NY 11426","1937-08-12","838-485-7946","America/New_York",40.74519,-73.71468
1111,"Brenda Bush","27 Davis Ct","Staten Island, NY 10310","1990-01-01","680-359-6064","America/New_York",40.64159,-74.11098
1112,"Debra Summers","919 13th Dr N","Canton, OH 44704","1986-03-16","740-451-9505","America/New_York",40.80780,-81.36760
1113,"Barbara Dixon","473 Park Ave","Chicago, IL 60625","1977-10-28","618-488-1139","America/Chicago",41.83750,-87.68660
1114,"Stacy Briggs","63-59 Saunders St","Rego Park, NY 11374","1990-11-15","914-735-8576","America/New_York",40.72941,-73.85634
1115,"Emily May","1077 SE Apache Dr","Queen Creek, AZ 85140","1970-01-25","480-371-9862","America/Phoenix",33.24540,-111.61730
1116,"Brendan Woods","673½ Victory Blvd","Staten Island, NY 10301","1964-06-24","929-488-6025","America/New_York",40.62444,-74.11210
1117,"Michael Bishop","1117 Lehua St NE","Kailua, HI 96734","1989-06-20","808-959-8210","Pacific/Honolulu",21.39200,-157.73960
1118,"Christina Brown","1357 Sterling Pl","Brooklyn, NY 11213","1967-03-29","516-851-1271","America/New_York",40.67171,-73.94613
1119,"Lisa Cain","369A E 39th St","Brooklyn, NY 11203","1985-08-20","516-866-2250","America/New_York",40.64980,-73.94098
1120,"Lisa Crawford","44-2 Barnett Ave","Sunnyside, NY 11104","1991-06-28","838-468-0797","America/New_York",40.75029,-73.91940
1121,"Gabriela Jennifer Johnson","877 Main St","Manhattan, NY 10044","1993-03-10","516-835-5122","America/New_York",40.76349,-73.94353
1122,"Stephanie Shepherd","575C W 30th St","Manhattan, NY 10001","1993-02-02","315-969-3630","America/New_York",40.74745,-74.00005
1123,"Scott Santiago","2819 Bronx Park E","Bronx, NY 10467","1956-07-07","315-749-3408","America/New_York",40.86041,-73.87117
1124,"Nick Schmitt","2042 6th Pl E","Alva, FL 33920","1977-07-26","448-819-6743","America/New_York",26.71880,-81.62690
1125,"James Shepard Jr.","3350 76th Ave","Lantana, FL 33462","1967-03-13","754-230-2638","America/New_York",26.58340,-80.05640
1126,"Tiffany Perkins","2095 S 3rd Ln","Portland, ME 04019","1989-04-01","207-455-3696","America/New_York",43.67730,-70.27150
1127,"Steven Yoder","7669 20th Ave","Brooklyn, NY 11214","1967-11-18","838-999-4813","America/New_York",40.60913,-73.99971
1128,"Makayla Cowan","1829 Linden Blvd","Brooklyn, NY 11207","2000-10-03","585-320-7566","America/New_York",40.66080,-73.89258
1129,"Charles Collins","735 Chauncey St","Brooklyn, NY 11207","1999-06-23","315-232-1038","America/New_York",40.68537,-73.90853
1130,"Jeffrey Carpenter II","68B Manhattan Ave","Manhattan, NY 10025","1972-02-24","838-591-6956","America/New_York",40.79810,-73.96355
1131,"Jennifer Phillips","45½ Spring St","Manhattan, NY 10012","1993-12-21","516-374-6886","America/New_York",40.72267,-73.99984
1132,"Daniel Barrett","42-25 Little Neck Pkwy","Little Neck, NY 11363","1966-03-20","838-604-3041","America/New_York",40.77413,-73.74206
1133,"Antonio Little","4420 7th St","New Rochelle, NY 10805","1990-11-02","516-579-2760","America/New_York",40.93040,-73.78360
1134,"Rachel Santiago","837 E 137th St","Bronx, NY 10454","1999-12-02","516-298-6380","America/New_York",40.80812,-73.91543
1135,"Amber Bowen","4034A 10th Ave","Manhattan, NY 10034","1992-08-14","914-562-8032","America/New_York",40.86221,-73.92290
1136,"Martin Navarro","58 E 89th St","Manhattan, NY 10128","1979-11-05","680-218-9125","America/New_York",40.78276,-73.94904
1137,"Barbara Baxter","1158A Vyse Ave","Bronx, NY 10459","1984-07-29","585-993-3973","America/New_York",40.82946,-73.88915
1138,"Taylor Rodriguez","50-6 58th Pl","Woodside, NY 11377","1936-04-17","716-781-5480","America/New_York",40.73587,-73.90850
1139,"Kyle Osborne","1039 E 227th St","Bronx, NY 10466","1968-04-07","845-467-2188","America/New_York",40.88946,-73.85516
1140,"Bryan Berger","24-45 43rd St","Astoria, NY 11103","1970-09-05","914-382-1992","America/New_York",40.76755,-73.91556
1141,"Jason Fisher","11 Kansas Pl","Brooklyn, NY 11234","1949-07-26","838-885-7939","America/New_York",40.60622,-73.90436
1142,"Kelly Elliott","2756 Grand Concession","Bronx, NY 10468","1982-10-06","914-599-8022","America/New_York",40.87089,-73.88901
1143,"Lisa Romero","925B 47th St","Brooklyn, NY 11219","1959-03-25","845-979-0740","America/New_York",40.63575,-73.98499
1144,"Annette Bowen","993A 44th St","Brooklyn, NY 11219","1962-11-09","212-377-6651","America/New_York",40.63471,-73.98426
1145,"Nicole Short","64-7 Fresh Pond Rd","Ridgewood, NY 11385","1952-04-05","585-705-9970","America/New_York",40.70642,-73.89559
1146,"Michelle Smith","4878 Lee Ave","Lorton, VA 22079","2001-12-06","703-845-8529","America/New_York",38.69830,-77.21640
1147,"Mikayla Sheila Adams","42-8 Elbertson St","Elmhurst, NY 11373","1957-09-19","838-970-4056","America/New_York",40.74474,-73.87225
1148,"Ryan Moore","127-13 25th Ave","College Point, NY 11356","1978-03-19","516-272-5756","America/New_York",40.77672,-73.84585
1149,"Frank Velasquez","497 Maple Pl","Philadelphia, PA 19125","1995-12-28","267-562-3172","America/New_York",40.00770,-75.13390
1150,"Kenneth Lloyd","2213 Broadway","Manhattan, NY 10024","1976-07-16","631-677-5542","America/New_York",40.78628,-73.97967
1151,"Kathy Ellis","2029 Park Way","Wasco, CA 93280","1949-04-29","279-910-6149","America/Los_Angeles",35.59380,-119.36710
1152,"Amanda Murphy","18-96 Mott Ave","Far Rockaway, NY 11691","1950-12-06","716-337-0991","America/New_York",40.60989,-73.76701
1153,"Kathy Mcdonald","2705 Rear E 13th St","Brooklyn, NY 11235","1957-10-18","212-612-2035","America/New_York",40.58621,-73.95711
1154,"Vincent Walker","83-83 208th St","Queens Village, NY 11427","1981-06-12","845-799-4287","America/New_York",40.72665,-73.76313
1155,"Matthew Morales II","82-25 256th St","Glen Oaks, NY 11004","2000-08-17","838-584-6439","America/New_York",40.73990,-73.71510
1156,"Kathryn Vega","1923 4th Ln","Pontiac, MI 48340","1964-04-14","989-777-7485","America/Detroit",42.64930,-83.28780
1157,"Jesus Moore","1466 Gar Watson Ave","Bronx, NY 10472","1965-07-17","212-441-2527","America/New_York",40.82929,-73.87318
1158,"Raymond Salazar Jr.","923 SE Park Way","Dallas, TX 75204","1951-09-28","806-712-8840","America/Chicago",32.79350,-96.76670
1159,"John Williams","2599 W Park Ave","Dallas, TX 75051","1998-06-03","254-722-7684","America/Chicago",32.79350,-96.76670
1160,"Connie Martinez","518 Van Duzer St","Staten Island, NY 10301","1993-05-20","838-867-6802","America/New_York",40.62188,-74.08206
1161,"Nicole Elizabeth Owens","371 S Oak Ln","Springdale, AR 72764","1990-11-22","870-248-0267","America/Chicago",36.19010,-94.15740
1162,"Jacqueline Best","474E E 167th St","Bronx, NY 10456","1948-01-26","516-404-2301","America/New_York",40.83147,-73.91564
1163,"Kayla Romero","1891 Bergen Ave","Brooklyn, NY 11234","1966-08-24","680-507-9340","America/New_York",40.62149,-73.90707
1164,"Thomas Williams","64-91 60th Dr","Maspeth, NY 11378","1995-02-20","607-278-1030","America/New_York",40.71609,-73.90057
1165,"Sherry Carney","1361 Park Way N","Milton, WI 53563","1995-07-19","534-749-4866","America/Chicago",42.77500,-88.94290
1166,"Angel Alexis Cooper","1450 S Dogwood Pl","Atlanta, GA 30332","1994-06-07","678-870-2581","America/New_York",33.76280,-84.42200
1167,"Jennifer Williams","45 Abbey Ct","Brooklyn, NY 11229","1961-04-01","585-237-5783","America/New_York",40.58705,-73.92068
1168,"Valerie Nelson","63-29 De Costa Ave","Arverne, NY 11692","1972-08-16","516-579-1586","America/New_York",40.59852,-73.79120
1169,"Elizabeth Martinez","1448 E 46th St","Brooklyn, NY 11234","1946-11-26","332-714-1948","America/New_York",40.62050,-73.93097
1170,"Tina Barker","4990 93rd Ln","Tampa, FL 33606","1981-09-25","954-256-7338","America/New_York",27.99450,-82.44470
1171,"Stephen Brooks","75 Henry St","Brooklyn, NY 11201","1953-06-11","929-294-1125","America/New_York",40.69992,-73.99744
1172,"George Miller","2571 Park Pl","Celeste, TX 75423","1994-10-30","830-433-8386","America/Chicago",33.28960,-96.19450
1173,"Cody Galvan","1381 Eastern Pkwy","Brooklyn, NY 11233","1968-01-19","631-531-4590","America/New_York",40.67168,-73.91968
1174,"Kevin Haynes","10A Catherine St","Manhattan, NY 10038","1972-05-25","585-446-0904","America/New_York",40.71289,-73.99742
1175,"Courtney Mckay","64 Martin Ave","Staten Island, NY 10314","1984-06-08","347-425-4387","America/New_York",40.60824,-74.13957
1176,"Alan Hall","4753A Bedford Ave","Brooklyn, NY 11235","1966-01-09","838-501-6566","America/New_York",40.58960,-73.94424
1177,"Katherine Wilson","3124 12th Ln","Hattiesburg, MS 39401","1984-08-16","601-962-0839","America/Chicago",31.30740,-89.31700
1178,"Dawn Doyle","4264 NW 8th St","Queens, NY 11102","1964-06-10","347-276-0561","America/New_York",40.74980,-73.79760
1179,"Victoria Cooke","2146A Ford St","Brooklyn, NY 11229","1956-01-11","914-530-1075","America/New_York",40.60275,-73.93832
1180,"Lisa Carey","540 Rear Washington Ave","Brooklyn, NY 11238","1979-07-21","929-368-0144","America/New_York",40.68035,-73.96468
1181,"Gordon Lang","3000 NE Park Way","New York, NY 10012","1945-08-27","315-897-5940","America/New_York",40.69430,-73.92490
1182,"James Carey","841 Ave R","Brooklyn, NY 11223","1974-12-07","516-639-3190","America/New_York",40.60487,-73.96464
1183,"Heather Shaw","54-5 251st St","Little Neck, NY 11362","1991-05-16","631-583-5391","America/New_York",40.76755,-73.72591
1184,"Justin Hughes","196A W 71st St","Manhattan, NY 10023","1989-01-12","631-962-7116","America/New_York",40.77803,-73.97722
1185,"Sarah Sherry Coleman","65-48 Fresh Pond Rd","Ridgewood, NY 11385","1979-11-06","516-421-7057","America/New_York",40.70279,-73.89764
1186,"Pamela Wilson","428C E Tremont Ave","Bronx, NY 10457","1966-05-31","315-331-9391","America/New_York",40.84786,-73.89304
1187,"Brianna Cain","879A Ocean Ave","Brooklyn, NY 11226","2000-04-30","315-728-0451","America/New_York",40.64283,-73.96009
1188,"Shawn Schwartz","133 York Ave","Staten Island, NY 10301","1974-07-07","914-895-4168","America/New_York",40.64427,-74.08814
1189,"Kristi Villa","219 W 88th St","Manhattan, NY 10024","1998-11-26","315-803-7801","America/New_York",40.79018,-73.97262
1190,"Haley Pittman","20 S 11th Ln","Greenville, SC 29609","1971-10-21","803-285-1405","America/New_York",34.83540,-82.36460
1191,"Natalie Karen Gonzalez","102-10 82nd Dr","Kew Gardens, NY 11415","1960-01-27","332-554-7890","America/New_York",40.71086,-73.83233
1192,"Mark Anderson","46-38 40th St","Sunnyside, NY 11104","1952-04-15","516-974-5595","America/New_York",40.74262,-73.92456
1193,"Brian Walker","76 Box St","Brooklyn, NY 11222","1958-03-20","607-944-9273","America/New_York",40.73756,-73.95589
1194,"Eddie Reyes","746S E 138th St","Bronx, NY 10454","2000-07-28","838-590-6606","America/New_York",40.80932,-73.92113
1195,"Susan Schmitt","1659 Troy Ave","Brooklyn, NY 11210","1992-06-03","585-561-9382","America/New_York",40.63047,-73.93427
1196,"Janet Pierce","29-33 Corporal Kennedy St","Bayside, NY 11360","1956-04-01","315-294-7203","America/New_York",40.77779,-73.78229
1197,"Linda Nguyen","155A W 57th St","Manhattan, NY 10019","1952-05-01","838-617-0958","America/New_York",40.76513,-73.97776
1198,"Stephanie Townsend","2912 Frederick Douglass Blvd","Manhattan, NY 10039","1942-03-12","516-836-7750","America/New_York",40.82571,-73.93600
1199,"Jessica Sweeney","63-19 75th Pl","Middle Village, NY 11379","1958-08-15","838-778-9905","America/New_York",40.72186,-73.88407
1200,"Carol Phelps","76-61 255th St","Glen Oaks, NY 11004","1946-09-08","716-920-8257","America/New_York",40.74022,-73.71571
1201,"Ellen Torres","58-50 Granger St","Corona, NY 11368","1957-03-04","838-781-4074","America/New_York",40.73814,-73.85737
1202,"Amanda Berry","702 10th Ave","Manhattan, NY 10036","2000-07-19","716-385-2729","America/New_York",40.76206,-73.99546
1203,"Melissa Mathews","1063 Pelham Pkwy N","Bronx, NY 10469","2000-11-15","315-664-2940","America/New_York",40.85856,-73.84818
1204,"Tristan Vasquez","245-27 90th Ave","Bellerose, NY 11426","1960-06-06","516-348-0626","America/New_York",40.72634,-73.71994
1205,"Erin Mcdaniel","1174B Southern Blvd","Bronx, NY 10459","1982-06-18","929-516-8903","America/New_York",40.82040,-73.89520
1206,"Nick Sandoval","3488 Park Pl N","Los Angeles, CA 90046","1989-04-01","279-213-8513","America/Los_Angeles",34.11410,-118.40680
1207,"Robert Gallagher","1736A Colden Ave","Bronx, NY 10462","1960-09-10","838-350-6696","America/New_York",40.84508,-73.86006
1208,"William Fernandez","150B George St","Brooklyn, NY 11237","1975-08-16","914-268-6912","America/New_York",40.70372,-73.92927
1209,"Bridget Vazquez","2585 Maple Rd","Detroit, MI 48214","1996-01-02","517-470-4686","America/Detroit",42.38340,-83.10240
1210,"Joyce Nguyen","449 E 23rd St","Manhattan, NY 10010","1960-02-10","914-535-0628","America/New_York",40.73941,-73.98109
1211,"Breanna Mejia","9750-37 Flatlands 10th St","Brooklyn, NY 11236","1960-11-20","315-262-2584","America/New_York",40.63832,-73.88304
1212,"Theresa Diaz","388 E 154th St","Bronx, NY 10455","1990-06-18","347-321-7969","America/New_York",40.81979,-73.91771
1213,"Cheryl Clark","525 1st Ave S","Washington, DC 20220","1959-01-09","771-335-7892","America/New_York",38.90470,-77.01630
1214,"Joseph Brooks","307 E 242nd St","Bronx, NY 10470","1956-11-24","585-677-1207","America/New_York",40.90623,-73.86720
1215,"Kelly Hughes","4157A Surf Ave","Brooklyn, NY 11224","1961-11-08","585-715-2515","America/New_York",40.57567,-74.00188
1216,"Christopher Evans","270 Hart St","Brooklyn, NY 11206","1958-12-01","516-742-5026","America/New_York",40.69484,-73.94635
1217,"Joseph Hunt","702A E 138th St","Bronx, NY 10454","1979-06-02","516-628-5083","America/New_York",40.80674,-73.92309
1218,"Kimberly Bowman","142 W 12th St","Manhattan, NY 10011","1972-07-11","315-497-9348","America/New_York",40.73489,-73.99689
1219,"Alexis Lewis","340 Beach 89th St","Far Rockaway, NY 11693","1970-10-30","631-939-5876","America/New_York",40.58841,-73.81444
1220,"Jason Rodriguez","50 Orient Ave","Brooklyn, NY 11211","1999-07-24","838-951-7296","America/New_York",40.71515,-73.94047
1221,"Michael Carson II","3772 2nd Dr SW","San Jose, CA 95131","1962-02-18","424-729-6818","America/Los_Angeles",37.30120,-121.84800
1222,"Timothy Anderson Jr.","1055A Rogers Ave","Brooklyn, NY 11226","1995-11-08","680-297-4706","America/New_York",40.65125,-73.95314
1223,"Joseph Cox","95 Lake Pl","Brooklyn, NY 11223","2000-06-02","516-678-5516","America/New_York",40.59491,-73.97948
1224,"Karla Anderson","1675 90th Rd NE","Coral Gables, FL 33134","1988-08-14","656-586-8060","America/New_York",25.70370,-80.27150
1225,"Joyce Tran","970B Columbus Ave","Manhattan, NY 10025","1997-11-07","516-870-3750","America/New_York",40.79482,-73.96815
1226,"Dustin Villa","4504 S 4th St","Yulee, FL 32097","1991-11-10","561-708-9925","America/New_York",30.63500,-81.56780
1227,"Denise Andrews","30A Sterling Pl","Brooklyn, NY 11217","1981-06-18","646-516-2870","America/New_York",40.67723,-73.97337
1228,"Lindsay Sutton","67 Midwood St","Brooklyn, NY 11225","1985-09-03","917-384-2788","America/New_York",40.66015,-73.94927
1229,"William Hudson","2330 W 2nd St","Brooklyn, NY 11223","1994-01-05","516-483-2630","America/New_York",40.60129,-73.97223
1230,"Kayla Cruz","235I Convent Ave","Manhattan, NY 10031","1957-03-30","718-775-1833","America/New_York",40.82086,-73.95135
1231,"Ernest Patterson","638 SW Dogwood Way","Thompson's Station, TN 37179","1980-10-21","423-565-0662","America/Chicago",35.81060,-86.90030
1232,"Mark Adams","212 Ten Eyck Walk","Brooklyn, NY 11206","1985-10-11","315-464-8025","America/New_York",40.71004,-73.94670
1233,"Grant Obrien","3758 Aspen Dr N","Colorado Springs, CO 80909","1995-04-03","970-637-8674","America/Denver",38.86740,-104.76050
1234,"Charles Gomez","69-42 Olcott St","Forest Hills, NY 11375","1981-08-01","914-727-2421","America/New_York",40.71168,-73.85529
1235,"Melissa Conway","1162 Pecan Way","Dallas, TX 75270","1967-03-17","361-881-8581","America/Chicago",32.79350,-96.76670
1236,"Marissa Perez","76A Orange Ave","Staten Island, NY 10302","1943-07-25","914-429-5070","America/New_York",40.62829,-74.14037
1237,"Chelsea Arnold","2289 W 2nd St","Brooklyn, NY 11223","1948-11-07","315-523-1988","America/New_York",40.59703,-73.97427
1238,"Lawrence Griffin","207-32 34th Ave","Bayside, NY 11361","1954-07-07","838-983-6013","America/New_York",40.77094,-73.76958
1239,"Mark Cooper","138-2 76th Ave","Flushing, NY 11367","1984-07-22","845-725-6008","America/New_York",40.72262,-73.82128
1240,"Kaylee Murphy","4031 Pine Pl E","Mableton, GA 30126","1951-10-01","678-343-5706","America/New_York",33.81330,-84.56550
1241,"Jordan Ortiz","1319 E 40th St","Brooklyn, NY 11234","1978-07-12","516-784-5836","America/New_York",40.62363,-73.93424
1242,"George Smith","536A Senator St","Brooklyn, NY 11220","1962-03-01","516-694-6915","America/New_York",40.63609,-74.02755
1243,"Deborah Ayala","4955 11th Ave E","Palm Beach Gardens, FL 33412","1982-05-07","863-763-2873","America/New_York",26.84660,-80.16790
1244,"Robert Horn","762 N Maple Pl","Detroit, MI 48235","1965-07-25","989-846-1474","America/Detroit",42.38340,-83.10240
1245,"Christopher Martinez","48-17 170th Pl","Fresh Meadows, NY 11365","1972-12-31","680-234-1974","America/New_York",40.74873,-73.79695
1246,"Donna Haynes","124A W 71st St","Manhattan, NY 10023","1979-06-14","315-372-1357","America/New_York",40.77606,-73.98179
1247,"James Campbell","309 Wallabout St","Brooklyn, NY 11206","2001-05-14","631-771-3272","America/New_York",40.70068,-73.94952
1248,"Matthew Bowman","3383 Foster Ave","Brooklyn, NY 11203","1985-10-08","838-590-3235","America/New_York",40.63981,-73.94467
1249,"Chad Salinas","156-36 45th Ave","Flushing, NY 11355","1951-08-30","516-598-8986","America/New_York",40.75397,-73.81968
1250,"Robert Aguilar","70-46 Manse St","Forest Hills, NY 11375","1967-06-25","585-718-9388","America/New_York",40.71451,-73.84888
1251,"Kirk Diaz Jr.","134-76 26th Ave","Flushing, NY 11354","1974-03-24","845-703-6409","America/New_York",40.77345,-73.80606
1252,"Daniel Harris","37B Nicholas Ave","Staten Island, NY 10302","1944-02-12","716-224-2443","America/New_York",40.63528,-74.14197
1253,"Randall Collins","75 E Mount Eden Ave","Bronx, NY 10452","1980-08-10","516-507-1621","America/New_York",40.84385,-73.91419
1254,"Nicholas Thompson","373 Bay 44th St","Brooklyn, NY 11214","1976-03-19","315-749-7679","America/New_York",40.58862,-73.99349
1255,"Tammy Hill","4526 New Utrecht Ave","Brooklyn, NY 11219","2001-12-12","680-605-4309","America/New_York",40.64285,-73.99732
1256,"Justin Jones","267 Jefferson Ave","Brooklyn, NY 11216","1954-01-12","315-739-4668","America/New_York",40.68284,-73.95520
1257,"Ricardo Burgess II","617 NW Park St","Frederick, MD 21701","1962-09-19","667-729-8117","America/New_York",39.43370,-77.41410
1258,"Larry Burns","3390 SE Park Rd","Los Angeles, CA 90016","1964-10-01","341-936-9751","America/Los_Angeles",34.11410,-118.40680
1259,"Brandon Delgado","4432 N Cedar Way","Dallas, TX 75088","1969-06-14","682-695-4794","America/Chicago",32.79350,-96.76670
1260,"Paula Anderson","147A Gelston Ave","Brooklyn, NY 11209","1992-03-29","585-675-9969","America/New_York",40.61978,-74.02763
1261,"Amy Brooks","4173 N 9th St","Broken Arrow, OK 74011","1980-01-31","918-353-7003","America/Chicago",36.03800,-95.78060
1262,"Sean Johnson","92 Church Ave","Brooklyn, NY 11218","1962-11-02","914-944-3877","America/New_York",40.64621,-73.97459
1263,"Dennis Odonnell","38 8th Ave","Brooklyn, NY 11217","1971-03-12","838-688-7032","America/New_York",40.67446,-73.97171
1264,"Jenna Larson","50 Monroe St","Brooklyn, NY 11238","1955-11-04","716-778-3331","America/New_York",40.68474,-73.95824
1265,"Robert Fisher","1147 Chestnut Ave","Brooklyn, NY 11230","1968-03-30","838-737-3566","America/New_York",40.61857,-73.96101
1266,"Joshua Hensley","4181 NW 11th Rd","Pittsburgh, PA 15120","1971-10-21","582-994-8345","America/New_York",40.43970,-79.97630
1267,"Andrea Schultz","3633B Eastchester Rd","Bronx, NY 10469","1986-08-14","212-452-9446","America/New_York",40.86783,-73.84241
1268,"Anthony Zavala","89-51 54th Ave","Elmhurst, NY 11373","1964-09-09","680-488-9342","America/New_York",40.73210,-73.87177
1269,"Michele Dixon","142-35 84th Rd","Jamaica, NY 11435","1978-08-02","585-615-3630","America/New_York",40.71295,-73.81562
1270,"Shannon Barker","1122 SW Maple Way","Columbia, PA 17512","1960-03-01","717-378-1921","America/New_York",40.03470,-76.49440
1271,"Patrick Burton","588B St Lawrence Ave","Bronx, NY 10473","1966-10-19","516-497-1269","America/New_York",40.81992,-73.86427
1272,"Brooke Reese","2804 Buhre Ave","Bronx, NY 10461","1991-10-12","680-357-7391","America/New_York",40.84855,-73.83310
1273,"Hannah Perez","1090 Teller Ave","Bronx, NY 10456","1955-10-30","917-844-0660","America/New_York",40.83799,-73.90972
1274,"Anthony Vaughan Jr.","80-20 31st Ave","East Elmhurst, NY 11370","1946-10-03","585-456-9369","America/New_York",40.76012,-73.88576
1275,"David Mack","175B E Broadway","Manhattan, NY 10002","1960-09-12","838-833-7975","America/New_York",40.71380,-73.98458
1276,"Adam Pacheco","96-69 Corona Ave","Corona, NY 11368","1955-01-07","838-691-4427","America/New_York",40.74058,-73.84869
1277,"Michael Huffman","1085 Coney Island Ave","Brooklyn, NY 11230","1985-02-02","914-872-2216","America/New_York",40.61906,-73.96462
1278,"William Garcia","186 Beach 91st St","Far Rockaway, NY 11693","1965-07-21","315-296-8368","America/New_York",40.58841,-73.81567
1279,"Jennifer Farley","1742 Coleman St","Brooklyn, NY 11234","2000-05-14","716-469-6614","America/New_York",40.61122,-73.93145
1280,"Cody Combs III","1538A Bath Ave","Brooklyn, NY 11228","1960-07-20","929-317-5153","America/New_York",40.60816,-74.01088
1281,"William Bell","1399A Putnam Ave","Brooklyn, NY 11237","1957-08-14","914-470-7475","America/New_York",40.69572,-73.91153
1282,"Joseph Porter","5550 Whitty Ln","Brooklyn, NY 11203","1951-05-01","680-597-3175","America/New_York",40.64056,-73.92496
1283,"Perry Ferguson","973 Wyckoff Ave","Brooklyn, NY 11237","1964-07-01","838-381-4903","America/New_York",40.70475,-73.92051
1284,"Linda Gutierrez","277A Stephens Ave","Bronx, NY 10473","1990-05-03","914-868-3974","America/New_York",40.81094,-73.85391
1285,"Olivia Cook","4167 Lake Ln NW","Novi, MI 48375","1989-03-07","313-780-1658","America/Detroit",42.47860,-83.48930
1286,"Juan Smith","3246 Parkside Pl","Bronx, NY 10467","1977-02-28","315-773-7636","America/New_York",40.87459,-73.87444
1287,"James Fischer","367B Stuyvesant Ave","Brooklyn, NY 11233","1994-08-31","838-930-3949","America/New_York",40.68095,-73.93188
1288,"Charles Walker","14 W 183rd St","Bronx, NY 10453","1970-09-10","914-650-2806","America/New_York",40.85986,-73.90812
1289,"Kevin Stone","4515 E Apache Rd","Phoenix, AZ 85028","1963-12-01","928-870-5663","America/Phoenix",33.57220,-112.08920
1290,"Brittany Flores","33-10 68th St","Woodside, NY 11377","1997-06-20","929-964-5525","America/New_York",40.74022,-73.89846
1291,"Keith Daugherty","2703 Park Pl SE","Los Angeles, CA 91306","1985-07-05","916-999-3962","America/Los_Angeles",34.11410,-118.40680
1292,"Olivia Miller","3215B Jerome Ave","Bronx, NY 10468","1969-04-05","838-682-0087","America/New_York",40.87788,-73.88715
1293,"Kayla Tucker","22-14 42nd St","Astoria, NY 11105","1995-01-23","914-604-0787","America/New_York",40.77628,-73.89868
1294,"Paige Welch","1242 SW Dogwood Rd","Winston-Salem, NC 27127","1953-02-03","336-998-2470","America/New_York",36.10290,-80.26100
1295,"Gina Fisher","520B Bergen St","Brooklyn, NY 11217","1950-01-17","332-532-0353","America/New_York",40.68160,-73.98070
1296,"Juan Berry","476 S Park Rd","Marysville, WA 98271","1988-12-19","360-840-4294","America/Los_Angeles",48.08090,-122.15610
1297,"Aaron Simpson","1939 Vyse Ave","Bronx, NY 10460","1959-11-24","607-451-2159","America/New_York",40.84146,-73.88337
1298,"Jessica Vang","224 W Maple Dr","Philadelphia, PA 19134","1993-11-21","814-261-2873","America/New_York",40.00770,-75.13390
1299,"Bianca Day","4270 10th St N","Milwaukee, WI 53295","1950-04-23","920-229-0729","America/Chicago",43.06420,-87.96750
1300,"Aaron Newton IV","51-27 58th Ln","Woodside, NY 11377","1964-07-23","516-779-1134","America/New_York",40.73720,-73.90736
1301,"Deborah Vazquez","83-82 169th St","Jamaica, NY 11432","1988-12-16","631-847-2128","America/New_York",40.71431,-73.79444
1302,"Sean Hines","8835 21st Ave","Brooklyn, NY 11214","1958-05-28","516-940-8566","America/New_York",40.60232,-73.99909
1303,"Yvonne Grimes","2027 Coyle St","Brooklyn, NY 11229","1949-04-06","516-807-9369","America/New_York",40.60015,-73.93672
1304,"Shannon Pearson","8-3 51st Ave","Long Island City, NY 11101","1963-10-11","516-223-6803","America/New_York",40.74227,-73.94497
1305,"David Sharp III","1804 NE Park St","Poughkeepsie, NY 12601","1997-10-14","516-617-4399","America/New_York",41.69500,-73.92110
1306,"Jennifer Dixon","281 Park Dr SW","Terre du Lac, MO 63628","1949-11-28","314-420-9901","America/Chicago",37.90420,-90.61680
1307,"Miguel Hodges","205A Ovington Ave","Brooklyn, NY 11209","1972-01-16","516-207-3808","America/New_York",40.63412,-74.02794
1308,"Gregory Hoffman","673 Montgomery St","Brooklyn, NY 11213","1973-05-31","934-822-7681","America/New_York",40.66480,-73.94215
1309,"James Ruiz","142-40 95th Ave","Jamaica, NY 11435","1977-09-19","516-540-7929","America/New_York",40.69695,-73.81098
1310,"Steven Gallagher","3319 Park Ave","Chicago, IL 60638","1994-06-12","773-412-9876","America/Chicago",41.83750,-87.68660
1311,"Darlene Darlene Gutierrez","2051 SE 12th Ln","Dayton, OH 45403","1975-02-24","326-982-0162","America/New_York",39.78050,-84.20030
1312,"Eric Jones","5422A 13th Ave","Brooklyn, NY 11219","1950-06-19","315-603-6132","America/New_York",40.63352,-73.99060
1313,"Thomas Galvan III","3366 Kansas Ln","Lawrence, KS 66045","1985-07-31","620-846-9244","America/Chicago",38.95970,-95.26420
1314,"Kim Rodriguez","48-11 90th St","Elmhurst, NY 11373","1964-01-08","585-856-5719","America/New_York",40.73806,-73.87246
1315,"Lisa Miller","212-6 56th Ave","Oakland Gardens, NY 11364","1965-05-23","315-555-6482","America/New_York",40.75295,-73.77175
1316,"Karen Ellison","1558 N Apache Dr","Phoenix, AZ 85018","1965-05-24","480-208-5139","America/Phoenix",33.57220,-112.08920
1317,"William Stewart","1866 E 28th St","Brooklyn, NY 11229","1974-07-05","516-998-3808","America/New_York",40.60132,-73.94633
1318,"Claudia Thompson","319 Rodney St","Brooklyn, NY 11211","1958-09-01","516-733-3184","America/New_York",40.70872,-73.95757
1319,"Gregory Stephens","590 Park Dr SW","Arapahoe, WY 82501","1980-01-15","307-404-5862","America/Denver",42.99110,-108.45620
1320,"Heather Davis","4-89 48th Ave","Long Island City, NY 11109","1971-11-15","914-291-9096","America/New_York",40.74453,-73.95687
1321,"Vanessa Sandra Jones","299B E 2nd St","Brooklyn, NY 11218","1984-10-10","646-609-1926","America/New_York",40.64327,-73.97777
1322,"Molly Greene","811 E 77th St","Brooklyn, NY 11236","1954-06-18","585-450-5354","America/New_York",40.63297,-73.91602
1323,"Beth Williams","4866 SE 2nd Ln","Las Vegas, NV 89145","1967-07-28","775-405-2442","America/Los_Angeles",36.23330,-115.26540
1324,"Jason Pearson","139-26 34th Rd","Flushing, NY 11354","1982-10-12","315-399-8302","America/New_York",40.76623,-73.82866
1325,"Kathleen Arnold","754 Tysens Ln","Staten Island, NY 10306","1970-06-16","838-459-1099","America/New_York",40.56604,-74.12053
1326,"Sharon Garner","4136 16th Ave","Brooklyn, NY 11219","1979-12-30","838-932-7224","America/New_York",40.63492,-73.98403
1327,"Terri Rodriguez","2316 Park Dr S","Boston, MA 02163","1986-09-27","774-344-7030","America/New_York",42.31880,-71.08520
1328,"Luis Brown","44-21 216th St","Bayside, NY 11361","1936-11-09","332-524-4184","America/New_York",40.76653,-73.76605
1329,"Christina Christina Kelley","3014A Cruger Ave","Bronx, NY 10467","1991-02-18","838-225-5640","America/New_York",40.86718,-73.86649
1330,"Shaun Smith Jr.","113 Rear E 109th St","Manhattan, NY 10029","1977-09-29","585-970-7297","America/New_York",40.79556,-73.94174
1331,"Julie Gibson","1213 Park Rd","Houston, TX 77085","1966-06-14","254-571-3808","America/Chicago",29.78600,-95.38850
1332,"Kathleen Carrillo","27A W 131st St","Manhattan, NY 10037","1967-03-01","315-905-1460","America/New_York",40.81039,-73.94184
1333,"Shawn Bishop","3640 13th Rd S","Kingston, NY 12401","1983-01-23","516-476-1039","America/New_York",41.92950,-73.99680
1334,"David Mosley Jr.","801 Hemlock St","Brooklyn, NY 11208","1986-07-11","315-881-5774","America/New_York",40.66461,-73.87068
1335,"Dawn Rogers","204 E 3rd St","Brooklyn, NY 11218","1994-05-11","838-551-2784","America/New_York",40.63955,-73.97659
1336,"David Davis","2962 SW Park St","Lakewood, WA 98498","1974-05-28","360-349-6117","America/Los_Angeles",47.16280,-122.52990
1337,"Johnny Wilson","73-59 Grand Ave","Maspeth, NY 11378","1972-04-10","631-523-5620","America/New_York",40.72089,-73.90468
1338,"Marie Clark","2584 Broadway","Manhattan, NY 10025","1975-10-11","315-668-1532","America/New_York",40.80311,-73.97139
1339,"Jennifer Chen","1082 E 16th St","Brooklyn, NY 11230","1957-03-22","680-744-1315","America/New_York",40.61338,-73.95784
1340,"Gabrielle Shepherd","133½ E 50th St","Manhattan, NY 10022","1978-05-10","518-525-9783","America/New_York",40.75321,-73.97181
1341,"Margaret Jillian Carroll","2579S Holland Ave","Bronx, NY 10467","1957-10-31","585-951-8034","America/New_York",40.87784,-73.86378
1342,"Christine Kelly Anderson","81-7 188th St","Jamaica, NY 11432","1970-05-03","315-841-6432","America/New_York",40.72165,-73.77871
1343,"Stephanie Schneider","120 Bleecker St","Brooklyn, NY 11221","1984-02-26","838-780-4290","America/New_York",40.69514,-73.92209
1344,"Richard West","1059 Virginia Ave","Bronx, NY 10472","1986-08-07","838-435-1790","America/New_York",40.83046,-73.86044
1345,"Andrew Cooley","41-67 Gleane St","Elmhurst, NY 11373","1953-03-26","914-468-5996","America/New_York",40.74501,-73.87452
1346,"Debra Thompson","993 E New York Ave","Brooklyn, NY 11213","1968-09-29","315-221-7515","America/New_York",40.66393,-73.93048
1347,"Gregory Olson","1835 Caton Ave","Brooklyn, NY 11226","1971-12-05","838-396-3016","America/New_York",40.65262,-73.96164
1348,"Megan Mendoza","146-13 24th Ave","Whitestone, NY 11357","1987-03-01","914-334-9770","America/New_York",40.77569,-73.79284
1349,"Joshua Myers","46 Courtney Loop","Staten Island, NY 10305","1991-11-20","315-855-3101","America/New_York",40.61247,-74.06310
1350,"Paula Chen","1958A Broadway","Brooklyn, NY 11233","1982-09-24","516-819-1956","America/New_York",40.68143,-73.90901
1351,"Joy Higgins","670 Liberty Ave","Staten Island, NY 10305","1955-12-04","516-687-0775","America/New_York",40.58361,-74.08674
1352,"Anna Moody","1211 Harrod Ave","Bronx, NY 10472","1996-09-10","585-304-2369","America/New_York",40.83147,-73.87463
1353,"Michael Stephens","170 Aspen Dr","Denver, CO 80223","1985-09-18","719-288-7692","America/Denver",39.76200,-104.87580
1354,"Tara Lynch","152 SW Maple Dr","Harrisburg, PA 17102","1945-04-03","878-455-1678","America/New_York",40.27520,-76.88430
1355,"Roger Garcia","193-59 69th Ave","Fresh Meadows, NY 11365","1968-02-09","718-472-7309","America/New_York",40.73685,-73.79735
1356,"Sonia Rhodes","4271 E Park Dr","Toledo, OH 43620","1973-03-28","614-366-6505","America/New_York",41.66380,-83.58270
1357,"Eileen Nelson","1235 Elder Ave","Bronx, NY 10472","1953-01-05","516-230-2992","America/New_York",40.83136,-73.87825
1358,"Hannah Carroll","1520A Taylor Ave","Bronx, NY 10460","1947-04-07","315-482-1780","America/New_York",40.84163,-73.86986
1359,"Michael White","148-45 Northern Blvd","Flushing, NY 11354","1992-01-04","646-241-8665","America/New_York",40.76249,-73.83185
1360,"Hannah Ferguson","1453 NE Park Ave","Cadott, WI 54727","1998-01-26","608-229-4733","America/Chicago",44.95020,-91.15320
1361,"Anthony Moore","267 88th St","Brooklyn, NY 11209","1956-05-02","838-908-6535","America/New_York",40.62204,-74.03684
1362,"Mark Robinson","165-19 Foch Blvd","Jamaica, NY 11434","1957-02-19","929-204-6426","America/New_York",40.68182,-73.78948
1363,"Gregory Hull","607A E 39th St","Brooklyn, NY 11203","1958-12-20","516-753-0890","America/New_York",40.64912,-73.93978
1364,"Diana Brown","4325 N 3rd Way","Columbus, OH 43203","1959-11-26","567-480-4673","America/New_York",39.98620,-82.98550
1365,"Angela Fisher","4251 E Pine Ln","Santa Ana, CA 92704","1942-09-09","747-987-7118","America/Los_Angeles",33.73670,-117.88190
1366,"Steven Huff","46 Gates Ave","Brooklyn, NY 11238","1994-07-12","680-222-6004","America/New_York",40.68419,-73.96066
1367,"Pamela Powers","4227 S Park Way","Hartford, CT 06112","1945-01-21","475-861-5911","America/New_York",41.76610,-72.68340
1368,"Wendy Henderson","80-62 168th St","Jamaica, NY 11432","1954-07-04","718-854-2872","America/New_York",40.71717,-73.79548
1369,"Jeremy Marks","38 Washington Ave","Brooklyn, NY 11205","1940-10-04","607-414-9282","America/New_York",40.69376,-73.96675
1370,"Andrea Carter","910 Union St","Brooklyn, NY 11215","1942-10-19","914-680-2216","America/New_York",40.67332,-73.98427
1371,"Micheal Perkins","1253 Ralph Ave","Brooklyn, NY 11203","1996-07-01","914-612-9481","America/New_York",40.64880,-73.92053
1372,"Henry Guzman","376 S Aspen Rd","Colorado Springs, CO 80927","1970-09-22","970-826-0039","America/Denver",38.86740,-104.76050
1373,"Edward Wallace","3518 Park Pl SE","Minneapolis, MN 55455","1996-11-23","952-847-5067","America/Chicago",44.96350,-93.26780
1374,"Toni Flores","3229 38th Way","Miami, FL 33128","1962-08-11","656-786-4423","America/New_York",25.78400,-80.21010
1375,"Jennifer Roberts","980 Clarkson Ave","Brooklyn, NY 11212","1949-10-22","585-355-7916","America/New_York",40.66050,-73.92118
1376,"Melvin Jimenez","49-47 72nd St","Woodside, NY 11377","1957-11-05","516-940-6700","America/New_York",40.74431,-73.89279
1377,"Samantha Kelly Carter","106-53 49th Ave","Corona, NY 11368","1987-01-01","585-888-3698","America/New_York",40.74580,-73.85760
1378,"Ashley Hayes","409 W Park Rd","Lima, OH 45801","1969-07-22","216-264-4225","America/New_York",40.74100,-84.11200
1379,"Joseph Massey","2427B Jerome Ave","Bronx, NY 10468","1950-04-09","716-549-6498","America/New_York",40.86055,-73.89046
1380,"Randall Hardin","91-86 148th St","Jamaica, NY 11435","1964-01-05","838-925-2699","America/New_York",40.70778,-73.80580
1381,"Joseph Shah","609 W 196th St","Manhattan, NY 10040","1959-06-29","585-731-2078","America/New_York",40.86076,-73.92943
1382,"James Long","407 Beach 127th St","Rockaway Park, NY 11694","1982-09-07","838-992-3050","America/New_York",40.57968,-73.84843
1383,"Brian Harding","425-69 Seagirt Blvd","Far Rockaway, NY 11691","1957-11-15","516-376-8487","America/New_York",40.59437,-73.74522
1384,"Anthony Sanchez","828 Rear Union St","Brooklyn, NY 11215","2001-10-11","315-877-8234","America/New_York",40.67844,-73.97323
1385,"Daniel Williams","903 5th Ave","Manhattan, NY 10021","1993-10-21","516-304-2721","America/New_York",40.77289,-73.96668
1386,"Elizabeth Bryant","287A E 50th St","Manhattan, NY 10022","1986-12-30","585-654-4129","America/New_York",40.75441,-73.97056
1387,"Jaime Miller","130-7 222nd St","Springfield Gardens, NY 11413","1984-10-12","716-626-5343","America/New_York",40.67537,-73.75200
1388,"Andre King","112-37 Beach Channel Dr","Arverne, NY 11692","1969-10-23","585-736-9821","America/New_York",40.59056,-73.79811
1389,"Zachary Delacruz Jr.","71-8 Roosevelt Ave","Woodside, NY 11377","1949-04-30","716-342-9388","America/New_York",40.74441,-73.90212
1390,"Stacey Castillo","470W Canal St","Manhattan, NY 10013","1954-11-19","838-363-7509","America/New_York",40.71987,-73.99959
1391,"Daniel Pruitt","4801 Park Pl","Chicago, IL 60643","1952-03-27","217-980-8217","America/Chicago",41.83750,-87.68660
1392,"Virginia Adams","989 Pierce Ave","Bronx, NY 10462","1968-08-22","516-632-1363","America/New_York",40.84528,-73.85323
1393,"Kenneth May","3059 SW Apache Dr","Mesa, AZ 85209","1959-11-25","480-873-5677","America/Phoenix",33.40150,-111.71780
1394,"Brenda Alexa Wright","209 Roosevelt Ln","Brooklyn, NY 11209","1986-04-15","914-792-7926","America/New_York",40.60860,-74.03140
1395,"Wendy Nelson","19 W 127th St","Manhattan, NY 10027","1962-10-21","716-702-8207","America/New_York",40.81215,-73.94692
1396,"Ryan Perkins","477 SW 12th Way","Minnehaha, WA 98661","1951-10-07","564-545-6966","America/Los_Angeles",45.65770,-122.62040
1397,"Carl Hill","232A Stephens Ave","Bronx, NY 10473","1981-06-13","332-223-0245","America/New_York",40.81175,-73.85412
1398,"Edward Miles II","3189 N 5th Rd","Atlanta, GA 30315","1968-05-01","762-618-5701","America/New_York",33.76280,-84.42200
1399,"Steven Johnson Jr.","27½ E 7th St","Manhattan, NY 10003","1958-07-08","516-961-7048","America/New_York",40.72763,-73.98621
1400,"Daniel Bennett","20-75 77th St","East Elmhurst, NY 11370","1947-11-16","332-662-4815","America/New_York",40.76353,-73.89198
1401,"Erin Welch","4028 SE 6th Rd","Queens, NY 11369","1984-08-13","838-951-9169","America/New_York",40.74980,-73.79760
1402,"Jill Silva","3869 SW Park Rd","Oconomowoc, WI 53066","1951-11-24","262-222-5677","America/Chicago",43.09960,-88.49480
1403,"James Washington","42-36 National St","Corona, NY 11368","1980-04-12","680-392-6267","America/New_York",40.74717,-73.86423
1404,"Lisa Hull","292 Rodney St","Brooklyn, NY 11211","1988-09-07","838-450-6436","America/New_York",40.71020,-73.96012
1405,"Caroline Brown","62 Central Park S","Manhattan, NY 10019","1972-06-06","516-207-3335","America/New_York",40.76644,-73.98008
1406,"Nick Roman","131-9 Sanford Ave","Flushing, NY 11355","1967-09-20","315-617-7020","America/New_York",40.75656,-73.81586
1407,"Mark Lawson","219A Union St","Brooklyn, NY 11231","1975-09-01","315-766-5206","America/New_York",40.68427,-73.99480
1408,"Matthew Smith","1445B St Nicholas Ave","Manhattan, NY 10033","1938-01-18","585-822-4753","America/New_York",40.85174,-73.93507
1409,"Maria Graves","8504-16 Flatlands 1st St","Brooklyn, NY 11236","1941-09-20","838-688-1602","America/New_York",40.64562,-73.89102
1410,"Antonio Clark Jr.","261 W 44th St","Manhattan, NY 10036","1950-02-14","680-874-6531","America/New_York",40.76245,-73.98662
1411,"Jennifer Pruitt","179 27th Ave","Brooklyn, NY 11214","1992-11-30","838-276-0899","America/New_York",40.59125,-73.98792
1412,"Christopher Davies","1257 SE Park Ave","Newark, NJ 07112","1949-05-23","609-802-8678","America/New_York",40.72450,-74.17250
1413,"Robert Smith","3440 Ave L","Brooklyn, NY 11210","1965-08-22","914-409-9485","America/New_York",40.62243,-73.93978
1414,"James Vazquez","108 W 11th St","Manhattan, NY 10011","1993-11-30","631-766-4782","America/New_York",40.73562,-73.99748
1415,"Tammy Williams","809B Columbus Ave","Manhattan, NY 10025","1980-09-20","914-766-4319","America/New_York",40.79482,-73.96663
1416,"Nicole Parrish","200 Lexington Ave","Manhattan, NY 10016","1993-12-03","631-645-5025","America/New_York",40.74839,-73.97750
1417,"Melvin Silva","2576 SW Dogwood Ave","Clarksville, TN 37043","1941-05-30","423-397-7611","America/Chicago",36.56920,-87.34130
1418,"Nick Nicholson","115-47 146th St","Jamaica, NY 11436","1956-08-31","518-992-8303","America/New_York",40.67911,-73.79335
1419,"Jonathan Fisher","126A Stack Dr","Staten Island, NY 10312","1936-07-20","607-560-0510","America/New_York",40.54782,-74.19747
1420,"Laurie Hanna","131-29 91st Ave","Richmond Hill, NY 11418","1994-06-26","631-396-1263","America/New_York",40.69306,-73.82364
1421,"Colleen Sherman","2998 Park Dr","Yakima, WA 98902","2000-06-22","360-810-3646","America/Los_Angeles",46.59230,-120.54960
1422,"Paul Lowe","50 Turner Pl","Brooklyn, NY 11218","1985-11-21","929-585-5124","America/New_York",40.64547,-73.96961
1423,"Roger Gutierrez","4137 Paulding Ave","Bronx, NY 10466","1968-09-17","914-316-0797","America/New_York",40.88539,-73.85200
1424,"Linda Sarah Rodriguez","1170 Taylor Ave","Bronx, NY 10472","1995-01-29","838-926-1077","America/New_York",40.82976,-73.86557
1425,"Harold Gonzales","77-51 Roosevelt Ave","Jackson Heights, NY 11372","1992-11-27","914-553-3890","America/New_York",40.74904,-73.89408
1426,"Joshua Bowers","103-76 145th St","Jamaica, NY 11435","2001-07-14","315-301-5357","America/New_York",40.69056,-73.80422
1427,"Deborah Tina Gray","4738 11th Pl SE","Des Moines, WA 98198","1980-03-24","360-647-3385","America/Los_Angeles",47.39140,-122.31560
1428,"Ronald Davis","8838 Foster Ave","Brooklyn, NY 11236","1962-08-12","516-961-2225","America/New_York",40.64091,-73.90593
1429,"Christine Kathleen Lewis","118 W 68th St","Manhattan, NY 10023","1997-08-31","516-288-0001","America/New_York",40.77493,-73.98081
1430,"Janet Martinez","1747A Monroe Ave","Bronx, NY 10457","1981-09-25","516-376-1882","America/New_York",40.84850,-73.90612
1431,"Sharon Norton","196-35 115th Rd","Saint Albans, NY 11412","1965-05-22","838-960-6358","America/New_York",40.69813,-73.75119
1432,"Emily Blackburn","1654 St Nicholas Ave","Manhattan, NY 10040","1963-11-02","934-343-3010","America/New_York",40.85393,-73.92771
1433,"Anthony Day","1244 E Apache Ln","Tucson, AZ 85706","1994-08-24","480-972-8959","America/Phoenix",32.15410,-110.87870
1434,"Francis Adkins","53½ E 48th St","Manhattan, NY 10017","1954-01-08","845-771-1315","America/New_York",40.75420,-73.97227
1435,"Shane Ellis","194 Delafield Ave","Staten Island, NY 10301","2000-08-26","914-471-2078","America/New_York",40.63200,-74.10471
1436,"Dalton Torres","1805 SW 4th Pl","Peoria, AZ 85373","1966-10-17","928-731-9715","America/Phoenix",33.78430,-112.29890
1437,"Oscar Beck","2823 Park Rd SE","Springfield, MO 65804","1950-04-07","417-858-5261","America/Chicago",37.19430,-93.29160
1438,"Daniel Miller","24-79 Ocean Crest Blvd","Far Rockaway, NY 11691","1961-03-15","315-513-2704","America/New_York",40.60089,-73.76644
1439,"Ian Mills","1668A St Nicholas Ave","Manhattan, NY 10040","2000-04-03","332-811-4060","America/New_York",40.85318,-73.92929
1440,"Ashley Watkins","14A Cooper Pl","Bronx, NY 10475","1987-10-17","631-792-5359","America/New_York",40.87726,-73.82541
1441,"John Sanders","3316 Newkirk Ave","Brooklyn, NY 11203","1959-02-02","838-559-0035","America/New_York",40.64036,-73.94454
1442,"Carolyn Beard","2494A Cruger Ave","Bronx, NY 10467","1971-08-08","607-512-1535","America/New_York",40.86432,-73.86671
1443,"Luis Chandler","573 Ave T","Brooklyn, NY 11223","1977-07-01","315-200-8475","America/New_York",40.59982,-73.97650
1444,"Charles Smith","465A Pulaski St","Brooklyn, NY 11221","1984-02-20","914-440-4367","America/New_York",40.69444,-73.93242
1445,"Samuel Fernandez","941 Jennings St","Bronx, NY 10460","1979-08-26","716-870-5963","America/New_York",40.83159,-73.88867
1446,"Julie Baldwin","350A Hewes St","Brooklyn, NY 11211","1982-05-24","929-950-4830","America/New_York",40.70671,-73.95296
1447,"Paul Mcdonald","214 Bay 32nd St","Brooklyn, NY 11214","1989-03-30","631-343-8473","America/New_York",40.59685,-73.99388
1448,"Dana Vanessa Jones","1747 Oak Ln","Hartselle, AL 35640","1991-04-01","334-899-8201","America/Chicago",34.43910,-86.93960
1449,"Suzanne Barron","3822 14th Ave","Brooklyn, NY 11218","1974-03-17","716-309-7384","America/New_York",40.64132,-73.98190
1450,"James Page","1776D Jerome Ave","Bronx, NY 10453","1979-07-26","315-385-0776","America/New_York",40.85339,-73.90803
1451,"Tonya Palmer","2137 Strang Ave","Bronx, NY 10466","1998-06-22","631-966-6586","America/New_York",40.89193,-73.83609
1452,"Samantha Gardner","1058 Elder Ave","Bronx, NY 10472","1964-10-18","516-655-7413","America/New_York",40.83200,-73.87979
1453,"Brian Gonzalez","1464A Bath Ave","Brooklyn, NY 11228","1956-10-21","315-542-8760","America/New_York",40.60835,-74.01154
1454,"Ana Obrien","31-36 60th St","Woodside, NY 11377","1960-09-25","838-450-0820","America/New_York",40.75287,-73.90362
1455,"Steven Robinson","244-37 Arleigh Rd","Little Neck, NY 11363","1999-08-17","516-223-1568","America/New_York",40.77534,-73.75078
1456,"Rebecca Moore","681 N 2nd Ave","New York, NY 10459","1977-09-21","315-206-0487","America/New_York",40.69430,-73.92490
1457,"Jack Salinas","1299 Elm Ave","Brooklyn, NY 11230","1961-05-12","838-465-8997","America/New_York",40.61852,-73.95875
1458,"Roy Daniels","3914 Sea Gate Ave","Brooklyn, NY 11224","1981-01-16","212-690-3782","America/New_York",40.57526,-74.00614
1459,"Tammie Smith","134-10 Hawtree Creek Rd","South Richmond Hill, NY 11419","1945-08-14","332-383-0789","America/New_York",40.68666,-73.80954
1460,"Zachary Callahan Jr.","4532 Park St","Columbus, OH 43201","1980-10-17","740-220-7631","America/New_York",39.98620,-82.98550
1461,"Maria Linda Calderon","2914 E Park Pl","Edinburg, TX 78539","1986-10-05","713-897-5535","America/Chicago",26.31960,-98.15970
1462,"Joseph Duffy","25-12 Corporal Kennedy St","Bayside, NY 11360","1984-12-01","716-987-5668","America/New_York",40.77272,-73.78380
1463,"Heather Rogers","3764A Broadway","Manhattan, NY 10032","1995-12-22","914-765-5886","America/New_York",40.83306,-73.94005
1464,"Scott Burton","412 Himrod St","Brooklyn, NY 11237","1965-10-23","315-367-2126","America/New_York",40.70251,-73.91844
1465,"Kristi Garcia","4673 13th Ave","Brooklyn, NY 11219","1984-05-07","332-656-0002","America/New_York",40.62635,-73.99355
1466,"Brittany Contreras","67-32 64th Pl","Ridgewood, NY 11385","1968-06-30","607-785-8042","America/New_York",40.69731,-73.89322
1467,"Daniel Williams","2687 Ely Ave","Bronx, NY 10469","2001-11-14","838-479-8736","America/New_York",40.87077,-73.83762
1468,"Scott Johnston IV","1349B Ogden Ave","Bronx, NY 10452","1960-02-24","315-714-0932","America/New_York",40.83654,-73.92495
1469,"Shaun Atkins","401B W 19th St","Manhattan, NY 10011","1982-03-02","680-602-5330","America/New_York",40.74592,-74.00393
1470,"Michelle Obrien","47-39 97th St","Corona, NY 11368","1966-04-08","838-830-6893","America/New_York",40.74000,-73.86984
1471,"Lindsay Molina","252A Logan St","Brooklyn, NY 11208","1958-03-13","585-810-3347","America/New_York",40.67250,-73.87361
1472,"Alex Wolf","701B New Dorp Ln","Staten Island, NY 10306","1949-10-23","516-326-2412","America/New_York",40.57415,-74.10386
1473,"Brian Chen","192-18 42nd Ave","Flushing, NY 11358","1963-08-05","585-334-5965","America/New_York",40.75936,-73.79277
1474,"Lori Werner","694 St Johns Pl","Brooklyn, NY 11216","1957-03-09","315-287-9108","America/New_York",40.67246,-73.94826
1475,"Jesus Little","3412 Park Pl SE","Trenton, NJ 08611","1964-07-16","848-752-9147","America/New_York",40.22370,-74.76410
1476,"Mathew Singh","347A Dean St","Brooklyn, NY 11217","1968-11-14","516-276-1366","America/New_York",40.68283,-73.98027
1477,"Larry Carpenter","951A E 79th St","Brooklyn, NY 11236","1970-06-02","212-375-2535","America/New_York",40.63772,-73.91345
1478,"Blake Dawson","2078 E 6th Dr","Los Angeles, CA 91307","1954-07-06","442-288-0480","America/Los_Angeles",34.11410,-118.40680
1479,"Richard Brown","2839 Rear W 16th St","Brooklyn, NY 11224","1994-10-18","838-746-7207","America/New_York",40.57993,-73.98486
1480,"Frank Wright","274 Hampton Green","Staten Island, NY 10312","1990-12-30","585-337-8564","America/New_York",40.55352,-74.19560
1481,"James Wang","2551 NW 11th Way","Durham, NC 27703","1956-10-20","252-765-8156","America/New_York",35.97920,-78.90220
1482,"Joseph Smith","183-13 Radnor Rd","Jamaica, NY 11432","1965-03-27","716-704-4901","America/New_York",40.72077,-73.78228
1483,"Christina Bowen","1069 Arnow Ave","Bronx, NY 10469","1967-02-22","516-775-9332","America/New_York",40.86738,-73.85629
1484,"Amanda Estes","251 Devoe St","Brooklyn, NY 11211","1973-01-17","914-671-4649","America/New_York",40.71376,-73.94161
1485,"Amanda Woods","733 E 221st St","Bronx, NY 10467","1997-07-02","516-405-9254","America/New_York",40.88515,-73.86276
1486,"Jenna Smith","568½ Hudson St","Manhattan, NY 10014","1962-08-25","838-408-1703","America/New_York",40.73937,-74.00656
1487,"Eric Chen","106-32 122nd St","South Richmond Hill, NY 11419","1991-10-23","315-631-5600","America/New_York",40.68441,-73.82102
1488,"Andrea Hoover","34-23 10th St","Astoria, NY 11106","1963-08-06","929-992-9738","America/New_York",40.76362,-73.93856
1489,"Christine Hernandez","68-6 Loubet St","Forest Hills, NY 11375","1969-11-04","838-615-0440","America/New_York",40.71494,-73.84738
1490,"Wendy Rogers","2186 W 250th St","Bronx, NY 10471","1982-10-30","838-745-4464","America/New_York",40.89720,-73.90665
1491,"Shawn Deleon","36-40 68th St","Woodside, NY 11377","1983-06-08","838-631-1595","America/New_York",40.75877,-73.89838
1492,"Jennifer Short","79 Rear Spring St","Manhattan, NY 10012","1953-07-11","838-885-4916","America/New_York",40.72324,-73.99730
1493,"Andrew Rodriguez","56 Catherine St","Manhattan, NY 10038","1945-09-22","585-940-0262","America/New_York",40.71292,-73.99700
1494,"Carol Baker","1162 Ave L","Brooklyn, NY 11230","1986-02-04","315-890-1413","America/New_York",40.61956,-73.96770
1495,"Sarah Chen","535A Ave T","Brooklyn, NY 11223","1967-12-25","585-455-5997","America/New_York",40.59901,-73.98315
1496,"David Garcia","3629A Bedford Ave","Brooklyn, NY 11229","1965-03-08","914-449-4049","America/New_York",40.59815,-73.94748
1497,"Sarah Guerrero","206 Wilson St","Brooklyn, NY 11211","1958-08-28","680-622-8390","America/New_York",40.70634,-73.96004
1498,"Shawn Garza II","46 5th Ave SW","Indianapolis, IN 46236","1979-11-08","765-238-3235","America/Indiana/Indianapolis",39.77710,-86.14580
1499,"Richard Hart","139-7 45th Ave","Flushing, NY 11355","1976-07-08","680-668-5169","America/New_York",40.75298,-73.81780
1500,"Benjamin Smith Jr.","772A E 149th St","Bronx, NY 10455","1963-11-15","838-601-2286","America/New_York",40.81348,-73.90787
1501,"Joseph Smith","128-63 Guy R Brewer Blvd","Jamaica, NY 11434","1983-11-08","315-748-8681","America/New_York",40.65890,-73.78102
1502,"Karen Donovan","47 Bay Terrace","Staten Island, NY 10306","1958-04-28","516-915-6271","America/New_York",40.55620,-74.13454
1503,"Hannah Hardy","197 Fanning St","Staten Island, NY 10314","1961-03-29","914-668-7843","America/New_York",40.60477,-74.12229
1504,"Christine Nelson","2137 73rd St","Brooklyn, NY 11204","1980-10-13","516-953-7569","America/New_York",40.61006,-73.99092
1505,"Craig Galvan","94-18 42nd Ave","Elmhurst, NY 11373","1976-05-17","914-511-2598","America/New_York",40.74592,-73.87145
1506,"Miguel Green II","364 Stanhope St","Brooklyn, NY 11237","1960-04-27","315-381-2422","America/New_York",40.70179,-73.92029
1507,"Laurie Zimmerman","108 73rd Way","White Springs, FL 32096","1969-07-18","352-873-2635","America/New_York",30.33170,-82.75620
1508,"Mark Harper","4811 NW Park Ln","Seattle, WA 98144","1990-10-31","360-588-1076","America/Los_Angeles",47.62110,-122.32440
1509,"Nancy Bryant","15-48 146th St","Whitestone, NY 11357","1952-10-15","516-253-2300","America/New_York",40.78521,-73.82160
1510,"Theresa Rodriguez","567 Marcy Ave","Brooklyn, NY 11206","1939-03-25","838-384-8431","America/New_York",40.70252,-73.94883
1511,"Jeremy Miller","1424 Bergen Ave","Brooklyn, NY 11234","1960-11-01","315-341-9263","America/New_York",40.61649,-73.91446
1512,"John Anderson","51 Abbey Ct","Brooklyn, NY 11229","1982-04-30","585-609-4091","America/New_York",40.58682,-73.92085
1513,"Jessica Conway","1477 West Ave N","Norwich, CT 06360","1975-10-31","860-499-1650","America/New_York",41.54950,-72.08820
1514,"Samantha Barber","736A Carroll St","Brooklyn, NY 11215","1951-09-21","347-669-8926","America/New_York",40.67505,-73.98631
1515,"Richard Stewart","341A W 89th St","Manhattan, NY 10024","1961-04-14","212-890-9098","America/New_York",40.78750,-73.96881
1516,"Seth Weeks Jr.","50A Greenwich St","Manhattan, NY 10006","1977-12-29","516-425-9761","America/New_York",40.70577,-74.01416
1517,"Desiree Strickland","659 67th St","Brooklyn, NY 11220","1965-10-25","914-625-5505","America/New_York",40.63239,-74.02249
1518,"Nathaniel Williams","48A Quincy St","Brooklyn, NY 11238","1997-07-16","315-416-6027","America/New_York",40.68629,-73.95729
1519,"Karen Watts","302 Front Pugsley Ave","Bronx, NY 10473","1995-07-30","680-665-5666","America/New_York",40.82175,-73.85358
1520,"Jerome Pena","255 W 127th St","Manhattan, NY 10027","1970-01-16","914-665-1578","America/New_York",40.81050,-73.94623
1521,"Mallory Morse","6094 Delafield Ave","Bronx, NY 10471","1960-04-26","516-825-7187","America/New_York",40.89261,-73.90336
1522,"Dylan Briggs","23-1 Ocean Crest Blvd","Far Rockaway, NY 11691","1962-07-22","315-314-2205","America/New_York",40.60023,-73.76600
1523,"Barbara Gill","126-10 Foch Blvd","South Ozone Park, NY 11420","1989-10-12","716-259-5930","America/New_York",40.67714,-73.80918
1524,"Benjamin Ford II","1456 NW Park Pl","New York, NY 10069","1948-11-27","914-246-0069","America/New_York",40.69430,-73.92490
1525,"Melinda Gates","700D W 125th St","Manhattan, NY 10027","2001-04-04","315-268-8927","America/New_York",40.81801,-73.94698
1526,"David Patel","3753 S Cherry St","Wilkinsburg, PA 15221","1982-06-12","717-992-5331","America/New_York",40.44420,-79.87330
1527,"Dawn Neal","309D Chester St","Brooklyn, NY 11212","1953-11-08","516-841-6576","America/New_York",40.66504,-73.90837
1528,"Michael Middleton","525 63rd St","Brooklyn, NY 11220","1989-11-01","680-628-9677","America/New_York",40.63975,-74.02332
1529,"Tabitha Brandy Smith","1198-25 Plainview Ave","Far Rockaway, NY 11691","2000-06-28","212-542-6327","America/New_York",40.59754,-73.74560
1530,"Jean Vega","3828 NE 4th Pl","Hopkins, MN 55305","1981-09-20","763-700-7484","America/Chicago",44.92590,-93.40560
1531,"Jimmy Reyes","58-60 Xenia St","Corona, NY 11368","1955-09-10","585-699-8551","America/New_York",40.73869,-73.85572
1532,"Lisa Watson","112-59 227th St","Queens Village, NY 11429","1962-03-10","914-487-0026","America/New_York",40.70919,-73.72885
1533,"Brian Berry","183-6 80th Dr","Jamaica, NY 11432","1967-10-04","838-620-0552","America/New_York",40.72562,-73.78437
1534,"Ashlee Perez","158B W 30th St","Manhattan, NY 10001","1972-10-11","585-442-1846","America/New_York",40.75374,-73.99646
1535,"Cody Robinson","467 E 161st St","Bronx, NY 10451","1955-01-31","838-758-7454","America/New_York",40.82826,-73.91089
1536,"Travis Brown","89-43 83rd Ave","Ridgewood, NY 11385","1946-06-05","315-272-2924","America/New_York",40.70325,-73.85453
1537,"Jennifer Acosta","2467 Park Way N","Victorville, CA 92394","1963-02-16","279-735-5939","America/Los_Angeles",34.52770,-117.35360
1538,"Lynn Smith","4934 Magnolia St E","Baton Rouge, LA 70809","1980-02-16","985-415-1319","America/Chicago",30.44200,-91.13110
1539,"Daniel Ball","286A W 100th St","Manhattan, NY 10025","1973-11-13","914-250-2346","America/New_York",40.79518,-73.97150
1540,"Benjamin Stephens","196-28 29th Ave","Flushing, NY 11358","1996-11-10","914-638-3341","America/New_York",40.77029,-73.79736
1541,"Michelle Clark","305 Windsor Pl","Brooklyn, NY 11218","1958-08-23","607-378-9324","America/New_York",40.65704,-73.97591
1542,"Brett Boyd","2083A Bogart Ave","Bronx, NY 10462","1980-03-30","838-625-3597","America/New_York",40.84824,-73.85700
1543,"James Smith","301 Rear Jefferson St","Brooklyn, NY 11237","1963-08-24","516-512-3172","America/New_York",40.70752,-73.92348
1544,"Aaron Rodriguez","507 S 9th Way","Queen Creek, AZ 85142","1954-12-26","480-227-6038","America/Phoenix",33.24540,-111.61730
1545,"Jason Richardson","1067 Ave R","Brooklyn, NY 11223","1963-02-01","315-956-1809","America/New_York",40.60522,-73.96513
1546,"Matthew Mann","515A Parkside Ave","Brooklyn, NY 11225","1977-08-24","585-690-4772","America/New_York",40.65615,-73.95508
1547,"Anthony Holden","62 E 107th St","Manhattan, NY 10029","2000-04-13","716-791-0232","America/New_York",40.79338,-73.94982
1548,"Michelle Strickland","3072 SE Park St","Boston, MA 02215","1984-08-06","617-801-7612","America/New_York",42.31880,-71.08520
1549,"Kendra Duncan","261 W 16th St","Manhattan, NY 10011","1984-07-15","914-388-9111","America/New_York",40.73854,-74.00345
1550,"Victoria Petty","33-22 Broadway","Astoria, NY 11106","1946-01-18","718-601-6314","America/New_York",40.76576,-73.93380
1551,"Thomas Brown","2652 Park St","North Bay Shore, NY 11706","1989-10-29","680-498-9713","America/New_York",40.76020,-73.26170
1552,"Heather Grimes","4074 SE 13th Way","Burke, VA 22015","1963-04-12","804-890-5721","America/New_York",38.77730,-77.26330
1553,"Dylan Powers","113 Waverly Pl","Manhattan, NY 10011","1975-07-28","585-758-1676","America/New_York",40.73257,-73.99935
1554,"Catherine Lane","2912 Frederick Douglass Blvd","Manhattan, NY 10039","1961-03-03","516-839-9736","America/New_York",40.82854,-73.93983
1555,"Amber Herman","3294 SE Park Way","Eldersburg, MD 21784","1939-08-26","410-691-5991","America/New_York",39.40410,-76.95280
1556,"Timothy Lam","29-29 90th St","East Elmhurst, NY 11369","1960-03-17","716-227-9515","America/New_York",40.76646,-73.87814
1557,"Cynthia Williams","2626 Woodhull Ave","Bronx, NY 10469","2001-10-09","607-914-1314","America/New_York",40.86200,-73.84165
1558,"Cynthia Harris","2100 N Park Pl","Elkhart, IN 46517","1963-04-07","463-954-8291","America/Indiana/Indianapolis",41.69160,-85.96270
1559,"Michael Harris Jr.","114-82 Guy R Brewer Blvd","Jamaica, NY 11434","1988-11-30","680-792-4818","America/New_York",40.67215,-73.77128
1560,"Joshua Hensley","1759 S Maple St","East York, PA 17402","1967-08-27","814-493-2348","America/New_York",39.96870,-76.67550
1561,"April Jacobson","2449 SE Park Ln","Elkridge, MD 21076","1954-08-08","301-760-5759","America/New_York",39.19410,-76.74280
1562,"Diana Burns","98 Lexington Ave","Manhattan, NY 10016","1972-04-17","716-948-5534","America/New_York",40.74866,-73.98259
1563,"Matthew Gonzalez","208-39 41st Ave","Bayside, NY 11361","1992-01-28","315-594-4581","America/New_York",40.76506,-73.77206
1564,"James Wheeler","833 NE 1st Rd","Lorton, VA 22079","1958-06-12","540-330-7575","America/New_York",38.69830,-77.21640
1565,"Sam Kerr","568A Throop Ave","Brooklyn, NY 11216","1955-05-25","914-285-2201","America/New_York",40.68229,-73.94044
1566,"Derek Adams","1312 Taylor Ave","Bronx, NY 10472","1947-12-30","516-508-3522","America/New_York",40.83236,-73.86541
1567,"Andre Tran","659 W 162nd St","Manhattan, NY 10032","1942-04-20","914-809-1516","America/New_York",40.83562,-73.94132
1568,"Justin Richards","822 E Park St","Los Angeles, CA 90052","1971-05-28","909-797-5258","America/Los_Angeles",34.11410,-118.40680
1569,"Carmen Anderson","140-42 130th Ave","Jamaica, NY 11436","1991-05-05","716-930-9613","America/New_York",40.67064,-73.79980
1570,"Wanda Peterson","16B Market St","Manhattan, NY 10002","1976-10-11","929-879-5100","America/New_York",40.71333,-73.99370
1571,"Emily Nguyen","2098 Oak Pl","Harrison, AR 72601","1992-05-19","870-761-2445","America/Chicago",36.24380,-93.11980
1572,"Erin Keller","4374 S Dogwood Way","Atlanta, GA 30312","1997-10-22","678-625-0474","America/New_York",33.76280,-84.42200
1573,"Nicole Yates","672B Columbus Ave","Manhattan, NY 10025","1969-06-04","631-458-4696","America/New_York",40.79351,-73.96533
1574,"Noah Hanson","334A Williams Ave","Brooklyn, NY 11207","1977-03-31","516-432-4977","America/New_York",40.66768,-73.89699
1575,"Craig Werner","5234 Broadway","Bronx, NY 10463","1996-03-02","516-920-8683","America/New_York",40.88124,-73.90896
1576,"Robert Campos","1084A E 3rd St","Brooklyn, NY 11230","1995-09-18","212-661-6547","America/New_York",40.61285,-73.97235
1577,"Maureen Edwards","422B Crown St","Brooklyn, NY 11213","1944-04-08","585-745-7978","America/New_York",40.66570,-73.93646
1578,"David Cabrera","1284 Leland Ave","Bronx, NY 10472","1980-11-28","315-801-4583","America/New_York",40.82985,-73.86327
1579,"Derrick Carter","393½ W 37th St","Manhattan, NY 10018","1982-12-18","518-881-5239","America/New_York",40.75634,-73.99660
1580,"Paul Ball","1609 W Park St","Hagerstown, MD 21742","1975-11-22","301-842-4182","America/New_York",39.64010,-77.72170
1581,"Fernando Tran","33-44 81st St","Jackson Heights, NY 11372","1951-06-09","315-462-4490","America/New_York",40.74976,-73.88589
1582,"Jeremy Phelps","98-49 106th St","Ozone Park, NY 11416","1963-02-20","585-629-2441","America/New_York",40.68523,-73.83845
1583,"James Rowe","4310 NE Apache St","Phoenix, AZ 85003","1966-07-30","928-225-4201","America/Phoenix",33.57220,-112.08920
1584,"Barry Mahoney","176 Henry St","Brooklyn, NY 11201","1979-03-14","716-380-2738","America/New_York",40.69522,-73.99630
1585,"Jaime Jones","40 Balfour Pl","Brooklyn, NY 11225","1965-10-06","516-805-4162","America/New_York",40.66307,-73.94507
1586,"Danielle Harmon","266 Corbin Pl","Brooklyn, NY 11235","1957-08-04","347-258-6274","America/New_York",40.57993,-73.95361
1587,"Anthony Liu","4927 Park St","Dallas, TX 75227","1952-05-25","903-998-5511","America/Chicago",32.79350,-96.76670
1588,"Briana Anderson","241 Murray St","Manhattan, NY 10282","1981-11-07","631-460-6830","America/New_York",40.71575,-74.01614
1589,"Jennifer Barajas","2846B Dewitt Pl","Bronx, NY 10469","1992-08-27","315-780-8399","America/New_York",40.86866,-73.84597
1590,"Kerry Hamilton","1255 Clay Ave","Bronx, NY 10456","1961-02-27","680-250-5624","America/New_York",40.83107,-73.91232
1591,"Christopher Ramirez","403 E 87th St","Manhattan, NY 10128","1976-04-01","315-263-9413","America/New_York",40.77930,-73.95244
1592,"Mary Walsh","280B Scholes St","Brooklyn, NY 11206","1980-01-30","914-657-3236","America/New_York",40.70798,-73.93523
1593,"Austin Freeman","3404 NE Maple Way","Allen Park, MI 48101","1957-12-07","734-915-4845","America/Detroit",42.25950,-83.21070
1594,"Michael Estes","4878 1st Ln SW","Lexington, KY 40509","1986-12-15","606-399-0839","America/New_York",38.04230,-84.45870
1595,"Jeanne Freeman","2389½ Broadway","Manhattan, NY 10024","1964-08-03","838-831-4086","America/New_York",40.78485,-73.97397
1596,"Alexis Greer","1837B Jerome Ave","Bronx, NY 10453","1953-07-10","585-870-1042","America/New_York",40.85281,-73.90467
1597,"Katrina Ortiz","307A St Nicholas Ave","Brooklyn, NY 11237","1981-07-16","680-997-5538","America/New_York",40.70751,-73.92032
1598,"Ryan Shaw","1501 Park St","Freeport, NY 11520","1984-06-01","845-202-5682","America/New_York",40.65150,-73.58500
1599,"Jennifer Stevens","14-36 155th St","Whitestone, NY 11357","1975-04-13","516-201-6336","America/New_York",40.78518,-73.80689
1600,"Heather Morris","588 7th Ave","Manhattan, NY 10036","1977-07-14","716-474-1740","America/New_York",40.75964,-73.98696
1601,"Joseph Cook","3306 Park Rd NE","Columbus, OH 43081","1951-07-21","567-749-5055","America/New_York",39.98620,-82.98550
1602,"Jeremy Sanchez","1154 E 32nd St","Brooklyn, NY 11210","1937-02-03","212-573-4177","America/New_York",40.62575,-73.94462
1603,"Crystal Monroe","6740 5th Ave","Brooklyn, NY 11220","1975-12-10","631-861-9660","America/New_York",40.64133,-74.01937
1604,"Benjamin Gomez","144-7 Melbourne Ave","Flushing, NY 11367","1982-01-06","838-698-9744","America/New_York",40.73342,-73.81895
1605,"Tina Tran","309 Columbia St","Brooklyn, NY 11231","1990-10-22","929-997-4199","America/New_York",40.68279,-74.00788
1606,"Mathew Bennett","4215 Navajo Dr N","Glendale, AZ 85306","1961-12-26","480-209-0909","America/Phoenix",33.57910,-112.23110
1607,"Robert Flowers","607 Herkimer St","Brooklyn, NY 11213","1960-07-08","518-325-5290","America/New_York",40.67912,-73.93663
1608,"William Stone","111C Henry St","Manhattan, NY 10002","1940-07-18","914-918-4853","America/New_York",40.71363,-73.99166
1609,"Mark Lopez","113 W 67th St","Manhattan, NY 10023","1970-11-12","838-306-8056","America/New_York",40.77429,-73.98356
1610,"Kayla Garcia","512 W 174th St","Manhattan, NY 10033","1946-12-20","716-775-6947","America/New_York",40.84448,-73.93444
1611,"Nicholas Snyder","2843 SW 7th Way","Pomona, CA 91766","1951-05-28","310-796-5813","America/Los_Angeles",34.05850,-117.76260
1612,"Leslie Phillips","27A Cooper Pl","Bronx, NY 10475","1970-12-31","914-922-4400","America/New_York",40.87724,-73.82467
1613,"Tonya Stephens","52-76 Parsons Blvd","Flushing, NY 11355","1974-07-30","838-867-4131","America/New_York",40.75323,-73.81728
1614,"Barbara Perez","91-24 145th St","Jamaica, NY 11435","1959-05-31","607-968-3694","America/New_York",40.70150,-73.80486
1615,"William Elliott","719½ Henry St","Brooklyn, NY 11231","1991-06-19","929-822-4474","America/New_York",40.68339,-73.99864
1616,"Jennifer Hartman","46½ Washington Ave","Brooklyn, NY 11205","1960-12-26","315-710-8663","America/New_York",40.69396,-73.96610
1617,"Gregory Santos","1903 W Maple Ln","Portage, MI 49024","1951-11-25","517-352-0692","America/Detroit",42.20000,-85.59060
1618,"Edward Shaffer","2684 Ave P","Brooklyn, NY 11229","2000-07-12","516-402-6460","America/New_York",40.61252,-73.95219
1619,"Rebecca Caldwell","621 N 9th Way","Taylors, SC 29687","1978-05-10","803-360-0393","America/New_York",34.91570,-82.31240
1620,"Jason Calderon Jr.","16A Washington Mews","Manhattan, NY 10003","1953-08-16","516-529-0838","America/New_York",40.73129,-73.99583
1621,"Jesse Knight Jr.","3978 NE Park Ln","Fresno, TX 77545","1990-05-10","281-986-2603","America/Chicago",29.53570,-95.46960
1622,"Samantha Wright","4691 79th Ln W","Bayamón, PR 00934","1963-10-19","521-954-5395","America/Puerto_Rico",18.37940,-66.16350
1623,"Tara Diaz","758 SW 10th Ave","Cleveland, OH 44104","1952-04-24","326-484-5968","America/New_York",41.47640,-81.68050
1624,"Marc Rivera","3339 8th Ln NE","Jersey City, NJ 07307","1953-01-06","551-520-1635","America/New_York",40.71840,-74.06860
1625,"Renee Colon","60A Mackay Pl","Brooklyn, NY 11209","1962-04-13","516-200-4143","America/New_York",40.63722,-74.03267
1626,"Johnny Moreno Jr.","405 5th Ave","Manhattan, NY 10016","1951-05-20","516-399-7471","America/New_York",40.74603,-73.98344
1627,"Christian Peterson","181-15 Union Turnpike","Fresh Meadows, NY 11366","1960-03-09","838-521-1295","America/New_York",40.72462,-73.77435
1628,"Benjamin Mayo","252-78 Leeds Rd","Little Neck, NY 11362","1988-07-19","516-335-0940","America/New_York",40.76512,-73.72988
1629,"Michaela Blanchard","4996 9th Rd","Glendora, CA 91741","1998-11-04","510-829-3437","America/Los_Angeles",34.14490,-117.84670
1630,"Tony Soto","1258 Cromwell Ave","Bronx, NY 10452","1981-04-26","607-892-8281","America/New_York",40.84219,-73.92031
1631,"Frederick Gardner","911 Park Dr","Elburn, IL 60119","1989-04-04","773-298-5679","America/Chicago",41.88520,-88.46060
1632,"Tony West","4800 W Park St","Trenton, NJ 08609","1957-09-27","908-941-3608","America/New_York",40.22370,-74.76410
1633,"Alexis Humphrey","170-6 35th Ave","Flushing, NY 11358","1970-05-17","315-884-8801","America/New_York",40.76531,-73.79917
1634,"Hayden Mcguire Jr.","565B Liberty Ave","Staten Island, NY 10305","1974-03-27","838-973-6496","America/New_York",40.58529,-74.09416
1635,"Jason Ochoa Jr.","2815 Jerome Ave","Bronx, NY 10468","1972-09-20","516-955-7360","America/New_York",40.86581,-73.89596
1636,"Julia Miller","145-23 119th Ave","Jamaica, NY 11436","1994-09-12","315-226-9265","America/New_York",40.67814,-73.79438
1637,"Melissa Thompson","284A W 74th St","Manhattan, NY 10023","1989-04-06","332-374-6015","America/New_York",40.78040,-73.97867
1638,"Oscar Navarro","1381-56 Gates Ave","Ridgewood, NY 11385","1995-12-29","585-340-6940","America/New_York",40.70772,-73.90073
1639,"Amanda Weber","2287B Jerome Ave","Bronx, NY 10468","1950-12-11","315-626-0100","America/New_York",40.86766,-73.89849
1640,"Jimmy Schultz","870 3rd Ave","Manhattan, NY 10022","1992-10-07","516-654-0801","America/New_York",40.75864,-73.97069
1641,"Melody Hansen","203-24 114th Dr","Saint Albans, NY 11412","1994-11-24","680-613-5520","America/New_York",40.69815,-73.76249
1642,"Justin Garrison","183 N 3rd Rd","Glasgow, WV 25086","1954-08-10","681-675-9306","America/New_York",38.21090,-81.42180
1643,"Richard Williams","2166 Park Rd","Brooklyn, NY 11223","1982-10-12","838-512-1221","America/New_York",40.65010,-73.94960
1644,"Tonya Brown","4067 82nd Pl W","Tampa, FL 33611","1980-05-16","305-468-6117","America/New_York",27.99450,-82.44470
1645,"Jennifer Davis","10334A Farragut Rd","Brooklyn, NY 11236","1998-01-22","838-645-8775","America/New_York",40.64188,-73.91799
1646,"Charles Carter","35-23 70th St","Jackson Heights, NY 11372","1996-12-07","315-346-5788","America/New_York",40.75237,-73.89622
1647,"Jean Adams","1223 NE Dogwood Rd","York, AL 36925","1966-01-16","938-427-9294","America/Chicago",32.49980,-88.29380
1648,"Kenneth Fox","623½ Lafayette Ave","Brooklyn, NY 11216","1975-09-04","585-240-3344","America/New_York",40.69018,-73.94746
1649,"John Alvarez","82A York Ave","Staten Island, NY 10301","1985-03-11","585-500-9714","America/New_York",40.64320,-74.08866
1650,"Gwendolyn Ford","29-31 160th St","Flushing, NY 11358","1962-09-06","838-225-7947","America/New_York",40.76712,-73.80639
1651,"Valerie Downs","86-27 94th St","Woodhaven, NY 11421","1960-11-12","347-200-4047","America/New_York",40.69284,-73.85106
1652,"Daniel Adams","145-28 27th Ave","Flushing, NY 11354","1997-03-09","585-709-7246","America/New_York",40.77362,-73.83999
1653,"Anthony Richards","456½ E 89th St","Manhattan, NY 10128","1968-02-10","516-588-4361","America/New_York",40.78023,-73.95480
1654,"Jonathan Simmons","3691 1st Way N","Washington, DC 20520","1977-10-19","771-690-3923","America/New_York",38.90470,-77.01630
1655,"Vanessa Ali","58 S End Ave","Manhattan, NY 10280","1966-08-15","838-960-8244","America/New_York",40.71050,-74.01715
1656,"Mark Davis","3177 SE 3rd Way","Claremont, CA 91711","1986-06-29","805-421-4594","America/Los_Angeles",34.12590,-117.71530
1657,"Jade Maynard","1562 NE Apache Rd","Phoenix, AZ 85048","1977-07-20","602-873-5126","America/Phoenix",33.57220,-112.08920
1658,"Derek Greene","104-20 120th St","South Richmond Hill, NY 11419","1968-10-05","914-925-3174","America/New_York",40.69362,-73.82366
1659,"David Vasquez","139-38 Lakewood Ave","Jamaica, NY 11435","1968-04-03","838-828-1356","America/New_York",40.68623,-73.80525
1660,"Clifford Clark","829A W 181st St","Manhattan, NY 10033","1969-07-18","516-397-3431","America/New_York",40.85096,-73.93277
1661,"Erin Cannon","576A Newkirk Ave","Brooklyn, NY 11230","1971-05-21","212-422-0555","America/New_York",40.63504,-73.96407
1662,"Jared Adams","75-57 255th St","Glen Oaks, NY 11004","1982-06-06","315-301-0666","America/New_York",40.74487,-73.71739
1663,"Kelly Walker","1222 66th Pl","Washington, DC 20024","1963-12-17","771-778-1934","America/New_York",38.90470,-77.01630
1664,"Melanie Gonzales","78 Varet St","Brooklyn, NY 11206","1948-03-25","315-722-5459","America/New_York",40.70355,-73.93694
1665,"Michael Duke","161-31 Jamaica Ave","Jamaica, NY 11433","1959-03-02","212-909-3951","America/New_York",40.70233,-73.78426
1666,"Denise Newton","1004 Park Rd","North Lindenhurst, NY 11701","1975-07-06","680-484-8784","America/New_York",40.70720,-73.38590
1667,"Diana Thompson","1817 2nd Ave","Manhattan, NY 10128","1979-08-01","917-671-1585","America/New_York",40.78026,-73.94843
1668,"Robert Macdonald","1265 Rear Decatur St","Brooklyn, NY 11207","1963-08-26","716-431-4018","America/New_York",40.68782,-73.90601
1669,"Lawrence Brown","1159 Teller Ave","Bronx, NY 10456","1996-03-15","516-556-7196","America/New_York",40.83674,-73.91018
1670,"Michelle Bond","168 Central Park S","Manhattan, NY 10019","1948-09-06","315-549-4080","America/New_York",40.76475,-73.97699
1671,"Bonnie Morton","106 Bay 37th St","Brooklyn, NY 11214","1972-11-11","838-218-2455","America/New_York",40.59703,-73.99163
1672,"Carmen Roman","3158 Broadway","Manhattan, NY 10027","1956-02-20","516-509-7056","America/New_York",40.80976,-73.95607
1673,"Jeanette Beck","540 E 149th St","Bronx, NY 10455","1956-03-27","516-821-0445","America/New_York",40.80847,-73.91498
1674,"Molly Duncan","1354 St Nicholas Ave","Manhattan, NY 10033","1971-03-06","716-491-9283","America/New_York",40.84766,-73.93393
1675,"Daniel Jones","276 N Park St","New York, NY 10278","1999-05-29","315-282-2125","America/New_York",40.69430,-73.92490
1676,"Kevin Johnston","1376 E 64th St","Brooklyn, NY 11234","1990-08-23","315-822-2746","America/New_York",40.61702,-73.91302
1677,"Anthony Olson","4950 Maple St","Birmingham, MI 48009","1963-04-14","313-291-3892","America/Detroit",42.54460,-83.21660
1678,"Christopher Smith","698 Ave O","Brooklyn, NY 11230","1998-03-11","716-857-5987","America/New_York",40.61129,-73.96903
1679,"Michael Clarke","1999B 3rd Ave","Manhattan, NY 10029","1958-08-23","631-749-7954","America/New_York",40.78834,-73.94033
1680,"Sara Johnston","270A E 7th St","Manhattan, NY 10009","1976-02-01","716-847-9339","America/New_York",40.72520,-73.97986
1681,"Brian Mills","356 Bedford Ave","Staten Island, NY 10306","1946-02-21","838-463-4891","America/New_York",40.58004,-74.10112
1682,"Joshua Carter","1870-33 Woodbine St","Ridgewood, NY 11385","1962-07-22","631-548-4328","America/New_York",40.70866,-73.89524
1683,"Barbara Rhodes","4014 NE Pine Pl","La Verne, CA 91750","1943-07-05","657-596-3339","America/Los_Angeles",34.12070,-117.77030
1684,"Joseph Russo","1230 E 3rd St","Brooklyn, NY 11230","1998-11-29","212-857-7118","America/New_York",40.62791,-73.97462
1685,"Clifford Potter","106-33 194th St","Saint Albans, NY 11412","1982-09-10","315-368-9918","America/New_York",40.70223,-73.75948
1686,"Cynthia Griffith","161 Pine Ave SW","Vallejo, CA 94589","1977-03-09","279-465-5085","America/Los_Angeles",38.11250,-122.23420
1687,"Kimberly Owens","1180 N 12th Pl","Raleigh, NC 27697","1953-07-13","828-477-6042","America/New_York",35.83240,-78.64290
1688,"Joseph Kelley","2238 85th St","Brooklyn, NY 11214","1969-02-12","585-458-5075","America/New_York",40.60815,-73.99741
1689,"Tim Leblanc","100-9 43rd Ave","Corona, NY 11368","1969-05-05","838-852-2477","America/New_York",40.74653,-73.85735
1690,"Hannah Mccann","60-7 213th St","Oakland Gardens, NY 11364","1985-02-28","838-240-9270","America/New_York",40.73877,-73.76694
1691,"Brandon Fry","2968 N Park Rd","Houston, TX 77011","1966-09-26","254-594-7276","America/Chicago",29.78600,-95.38850
1692,"Laura Phillips","4184 W Park Rd","Hanover Park, IL 60133","1983-02-24","618-585-8964","America/Chicago",41.98180,-88.14460
1693,"Desiree Green","56-92 Maspeth Ave","Maspeth, NY 11378","1968-06-18","585-485-7560","America/New_York",40.72300,-73.91170
1694,"Brent Elliott","1983 Harrison Ave","Bronx, NY 10453","1947-03-16","838-579-8173","America/New_York",40.85173,-73.91177
1695,"Anna Williams","357A Henry St","Brooklyn, NY 11201","1991-06-24","315-240-1408","America/New_York",40.69005,-73.99512
1696,"Frederick Stevens","64 Hicks St","Brooklyn, NY 11201","1953-08-28","516-271-6837","America/New_York",40.69904,-73.99362
1697,"Matthew Gray","68-14 Nansen St","Forest Hills, NY 11375","1977-05-09","585-836-1040","America/New_York",40.71237,-73.84934
1698,"Cynthia Hall","178-38 80th Dr","Jamaica, NY 11432","1998-06-19","315-472-3581","America/New_York",40.72456,-73.78275
1699,"April Walker","28-62 46th St","Astoria, NY 11103","1935-10-14","516-308-5598","America/New_York",40.75745,-73.91603
1700,"Dana Sandoval","724 6th Ave","Phoenix, AZ 85087","1972-12-24","623-413-6823","America/Phoenix",33.57220,-112.08920
1701,"Madison Cooper","15 E 116th St","Manhattan, NY 10035","1965-03-22","516-969-2560","America/New_York",40.79549,-73.93924
1702,"Melissa Hale","3308 SE Park Pl","El Centro, CA 92243","1982-09-12","949-663-7546","America/Los_Angeles",32.78650,-115.55950
1703,"Jeffrey Moreno","102 Lott St","Brooklyn, NY 11226","1959-10-07","680-958-2132","America/New_York",40.64802,-73.95384
1704,"Matthew Gonzalez","21 Dahill Rd","Brooklyn, NY 11218","1951-10-06","914-819-4008","America/New_York",40.64067,-73.97928
1705,"Mark Ball","2293B Story Ave","Bronx, NY 10473","2001-01-24","315-522-1810","America/New_York",40.82498,-73.88053
1706,"Jessica Shah","908 E 241st St","Bronx, NY 10466","1992-07-16","585-408-6122","America/New_York",40.90154,-73.84360
1707,"Mary Young","775 Pelton Ave","Staten Island, NY 10310","1993-11-27","716-897-3375","America/New_York",40.63463,-74.11183
1708,"Renee Hart","4822A Broadway","Manhattan, NY 10034","1954-07-28","315-344-5356","America/New_York",40.86645,-73.92092
1709,"Margaret Myers","4784 Glenwood Rd","Brooklyn, NY 11234","1987-11-02","315-660-8895","America/New_York",40.63566,-73.92053
1710,"Sarah Aguilar","92-57 218th St","Queens Village, NY 11428","1951-03-31","680-530-8195","America/New_York",40.72287,-73.74060
1711,"John Mathews","1545 Park St NE","New York, NY 10030","1982-08-01","680-638-1715","America/New_York",40.69430,-73.92490
1712,"William Morales","6609 Duryea Ct","Brooklyn, NY 11219","2001-09-09","516-212-2399","America/New_York",40.62156,-73.99679
1713,"Dennis Smith","25-13 Corporal Kennedy St","Bayside, NY 11360","1958-12-12","838-400-5315","America/New_York",40.77622,-73.78250
1714,"Steven Hoffman","70A Cedar St","Brooklyn, NY 11221","1998-03-18","516-320-5894","America/New_York",40.69645,-73.92774
1715,"Justin Shelton","1754A Prospect Pl","Brooklyn, NY 11233","1949-03-26","516-934-8283","America/New_York",40.67284,-73.92130
1716,"Matthew Stewart","78-49 57th Ave","Elmhurst, NY 11373","1992-11-05","516-336-4360","America/New_York",40.73485,-73.88526
1717,"Scott Oneal","1159A Ocean Ave","Brooklyn, NY 11230","1979-12-16","516-342-5096","America/New_York",40.62959,-73.95756
1718,"Blake Decker","101C South Ave","Staten Island, NY 10303","1946-07-29","585-622-1050","America/New_York",40.62458,-74.16701
1719,"Brandon Wright","272A Patchen Ave","Brooklyn, NY 11233","1948-05-25","838-387-7876","America/New_York",40.68255,-73.92659
1720,"Debra Williams","83-61 Vietor Ave","Elmhurst, NY 11373","1963-10-14","838-862-4420","America/New_York",40.74282,-73.88106
1721,"April Hoffman","58-84 220th St","Oakland Gardens, NY 11364","1999-02-26","607-886-0677","America/New_York",40.74031,-73.75322
1722,"Joseph Sullivan","100-55 146th St","Jamaica, NY 11435","1961-03-11","838-971-6523","America/New_York",40.70490,-73.79752
1723,"Mario Macdonald","3395 E 44th Dr","Miami, FL 33132","1981-06-23","305-795-2901","America/New_York",25.78400,-80.21010
1724,"Robin Knight","1460 S 2nd St","Walker, LA 70785","1943-01-15","985-631-4370","America/Chicago",30.48510,-90.86540
1725,"Kelly Krause","1260A Dean St","Brooklyn, NY 11216","1953-05-03","838-816-8494","America/New_York",40.67716,-73.94775
1726,"Douglas Williams","294 W 136th St","Manhattan, NY 10030","2000-08-15","516-483-0939","America/New_York",40.81703,-73.94544
1727,"Laura Porter","4643 21st Ln E","Plantation, FL 33388","1990-12-27","305-244-7956","America/New_York",26.12590,-80.26170
1728,"Kevin Baker","424 64th St","Brooklyn, NY 11220","1977-10-12","516-538-3912","America/New_York",40.63844,-74.01944
1729,"Sharon Zavala","33-19 110th St","Corona, NY 11368","1952-12-10","838-582-3195","America/New_York",40.75644,-73.85934
1730,"Kaitlyn Rogers","892B Forest Ave","Bronx, NY 10456","1968-09-29","914-643-2769","America/New_York",40.82747,-73.90422
1731,"Sylvia Boyd","46-1 46th St","Woodside, NY 11377","1994-07-28","315-560-0743","America/New_York",40.73921,-73.91924
1732,"Jennifer Webster","355B E 53rd St","Brooklyn, NY 11203","1954-12-22","585-604-5714","America/New_York",40.64722,-73.92801
1733,"William White","1517 Gillespie Ave","Bronx, NY 10461","1997-12-20","607-747-6794","America/New_York",40.83948,-73.82997
1734,"Ralph Roach","1157 NW Park St","Orrville, OH 44667","1984-03-11","937-231-6822","America/New_York",40.84800,-81.77430
1735,"Tina Wagner","4815 NW Maple Dr","Philadelphia, PA 19128","1956-01-28","412-293-8429","America/New_York",40.00770,-75.13390
1736,"Tyler Rodriguez","4623B Bedford Ave","Brooklyn, NY 11235","1985-03-06","516-475-8501","America/New_York",40.59088,-73.94463
1737,"Leslie Miller","3639 9th Way","Cincinnati, OH 45233","1947-02-17","419-758-3647","America/New_York",39.14130,-84.50600
1738,"Catherine Woods","1124 Park Rd","Redding, CA 96001","1993-07-05","424-370-4010","America/Los_Angeles",40.56980,-122.36500
1739,"Patricia Pham","1573 Arnow Ave","Bronx, NY 10469","1978-05-14","315-714-9532","America/New_York",40.86849,-73.84882
1740,"Sarah Nguyen","23 Madison Ave","Manhattan, NY 10010","1949-08-28","516-329-2760","America/New_York",40.74227,-73.98725
1741,"Debbie Debra Lynch","183 E Park Pl","Los Angeles, CA 91343","1987-08-18","661-309-2731","America/Los_Angeles",34.11410,-118.40680
1742,"Alexa Brown","3324 10th Way","Gilbert, AZ 85296","1980-05-05","928-952-7060","America/Phoenix",33.31000,-111.74630
1743,"Francisco Ball","209 Rear 2nd Ave","Manhattan, NY 10003","1998-06-12","315-716-1435","America/New_York",40.73123,-73.98523
1744,"Mary Vance","161-49 Mathias Ave","Jamaica, NY 11433","1953-04-16","838-772-8149","America/New_York",40.69037,-73.78517
1745,"Preston Morales","25-12 Ocean Crest Blvd","Far Rockaway, NY 11691","1978-06-15","585-536-8107","America/New_York",40.60120,-73.76448
1746,"Leon Hayes","568 W 159th St","Manhattan, NY 10032","1946-05-28","516-224-5164","America/New_York",40.83448,-73.94019
1747,"Antonio Martinez III","1373 Elm Ave","Brooklyn, NY 11230","1999-04-09","516-607-4101","America/New_York",40.61836,-73.96131
1748,"Jamie Morales","2930 W 29th St","Brooklyn, NY 11224","1951-11-02","585-685-6174","America/New_York",40.57741,-73.99458
1749,"Michael Tucker","2185 E 27th St","Brooklyn, NY 11229","1972-06-03","607-542-1765","America/New_York",40.61252,-73.94690
1750,"Julie Gutierrez","373 Henry St","Brooklyn, NY 11201","1984-07-20","332-936-2841","America/New_York",40.68747,-73.99809
1751,"Nancy Williams","4411 S Park Ave","Fountain Valley, CA 92708","1976-03-06","831-513-8500","America/Los_Angeles",33.71050,-117.95140
1752,"Anna Johnson","376½ 19th St","Brooklyn, NY 11215","1960-07-08","585-868-0506","America/New_York",40.66245,-73.98438
1753,"Nancy Lozano","3114 5th Way","Fort Worth, TX 76036","1975-06-17","254-850-1782","America/Chicago",32.78170,-97.34740
1754,"Colleen Lopez","296A State St","Brooklyn, NY 11201","1953-07-25","516-242-6574","America/New_York",40.69140,-73.99778
1755,"Samantha King","446A E Tremont Ave","Bronx, NY 10457","1972-10-06","838-615-5523","America/New_York",40.84661,-73.89853
1756,"Lauren Deleon","422½ King Ave","Bronx, NY 10464","1972-05-11","680-997-0612","America/New_York",40.85203,-73.78651
1757,"Elizabeth Lopez","7187 Bergen Ct","Brooklyn, NY 11234","1996-06-22","315-577-0047","America/New_York",40.62467,-73.91112
1758,"Javier Collins","26-24 210th Pl","Bayside, NY 11360","1985-10-09","315-466-6438","America/New_York",40.77373,-73.77873
1759,"Kimberly Potter","22 Riley Pl","Staten Island, NY 10302","1992-08-26","646-952-8259","America/New_York",40.62851,-74.14087
1760,"Michael Simpson II","4383 Oak Way","Camden, AR 71701","1970-04-13","870-872-6096","America/Chicago",33.56720,-92.84670
1761,"Abigail Smith","103-6 Guy R Brewer Blvd","Jamaica, NY 11433","1951-02-27","347-824-0267","America/New_York",40.69710,-73.79299
1762,"Sam Christensen","1515 Brooklyn Ave","Brooklyn, NY 11210","1987-06-04","718-892-2199","America/New_York",40.62760,-73.94173
1763,"Patrick Deleon","21-78 38th St","Astoria, NY 11105","1964-02-19","315-873-6487","America/New_York",40.77921,-73.90056
1764,"John Mayer","64-44 52nd Ave","Woodside, NY 11377","1945-09-15","914-295-5393","America/New_York",40.73489,-73.90739
1765,"Joseph Swanson Jr.","7 E 55th St","Manhattan, NY 10022","1982-05-19","838-282-7527","America/New_York",40.75612,-73.97173
1766,"Krystal Hanna","111-2 Witthoff St","Queens Village, NY 11429","1966-03-04","516-873-5845","America/New_York",40.70687,-73.74294
1767,"John Rodriguez Jr.","141 Livonia Ave","Brooklyn, NY 11212","2000-09-04","631-675-7070","America/New_York",40.66128,-73.90641
1768,"John Collins","1424 St Nicholas Ave","Manhattan, NY 10033","1964-05-17","315-652-4388","America/New_York",40.84785,-73.93427
1769,"Shawn Kennedy","566 Park Way NE","Houston, TX 77346","1986-09-27","817-291-7891","America/Chicago",29.78600,-95.38850
1770,"Donna Williams","478 W Dogwood Dr","Chattanooga, TN 37409","1962-12-19","931-306-1648","America/New_York",35.06600,-85.24810
1771,"Becky Carter","207 E 51st St","Brooklyn, NY 11203","1953-06-07","914-874-0596","America/New_York",40.65811,-73.92772
1772,"Theodore Sanchez","5881 Fieldston Rd","Bronx, NY 10471","1950-07-16","585-480-7465","America/New_York",40.90038,-73.90356
1773,"Travis Moran","177 E End Ave","Manhattan, NY 10028","1986-08-26","585-637-8816","America/New_York",40.77590,-73.94715
1774,"Thomas Montoya","405A E Tremont Ave","Bronx, NY 10457","1956-06-22","838-268-5737","America/New_York",40.84711,-73.90355
1775,"Cory Johnson","1625A St Nicholas Ave","Manhattan, NY 10040","1969-05-30","315-200-0947","America/New_York",40.85444,-73.93102
1776,"Mary Evans","386 Westwood Ave","Staten Island, NY 10314","1966-12-15","914-966-6452","America/New_York",40.60612,-74.14630
1777,"Heather Andrews","2340 NW Park Ave","Melwood, MD 20772","1957-08-06","667-937-6758","America/New_York",38.80240,-76.84190
1778,"Jenny Hill","3341 SW Park Way","Galveston, TX 77554","1951-04-12","512-629-3964","America/Chicago",29.24840,-94.89130
1779,"Victor Smith","318 Lake St","Brooklyn, NY 11223","1967-11-16","914-259-5138","America/New_York",40.59145,-73.97490
1780,"James Deleon","51 E 50th St","Manhattan, NY 10022","2000-01-14","838-929-1660","America/New_York",40.75368,-73.96753
1781,"Jamie Bryant","470B 15th St","Brooklyn, NY 11215","1999-01-07","585-611-3312","America/New_York",40.66804,-73.98490
1782,"Teresa Davies","2859½ Waterbury Ave","Bronx, NY 10461","1952-12-10","315-239-8421","America/New_York",40.83864,-73.83418
1783,"Jack Miller","2507 Grand Ave","Bronx, NY 10468","1951-08-05","585-620-7382","America/New_York",40.86677,-73.90379
1784,"Dwayne Baker","44 E 94th St","Manhattan, NY 10128","1954-11-20","516-660-2267","America/New_York",40.78418,-73.95371
1785,"Katie Mcguire","129 Marion Ave","Staten Island, NY 10304","1952-11-21","680-779-7591","America/New_York",40.62851,-74.08366
1786,"Barbara Cox","3 Cooper Pl","Bronx, NY 10475","1991-01-01","516-502-3515","America/New_York",40.87692,-73.82570
1787,"Sean Robinson","76-9 Roosevelt Ave","Elmhurst, NY 11373","1991-12-10","585-718-5004","America/New_York",40.74736,-73.87617
1788,"Roger Gray","13B Wall St","Manhattan, NY 10005","1964-01-05","516-227-0244","America/New_York",40.70641,-74.00839
